$GNRMC,092338.104,V,,,,,,,010921,,,M,V*27
$GNRMC,092339.000,V,,,,,,,010921,,,M,V*23
$GNRMC,092340.000,V,,,,,,,010921,,,M,V*2D
$GNRMC,092341.000,V,,,,,,,010921,,,M,V*2C
$GNRMC,092342.000,V,,,,,,,010921,,,M,V*2F
$GNRMC,092343.000,V,,,,,,,010921,,,M,V*2E
$GNRMC,092344.000,V,,,,,,,010921,,,M,V*29
$GNRMC,092345.000,V,,,,,,,010921,,,M,V*28
$GNRMC,092346.000,V,,,,,,,010921,,,M,V*2B
$GNRMC,092347.990,A,3355.75822,S,01851.70138,E,0.78,0.00,010921,,,E,V*16
$GNRMC,092348.996,A,3355.75810,S,01851.70112,E,1.26,0.00,010921,,,A,V*18
$GNRMC,092350.000,A,3355.75802,S,01851.70098,E,0.28,0.00,010921,,,A,V*18
$GNRMC,092351.000,A,3355.75806,S,01851.70132,E,0.63,0.00,010921,,,A,V*13
$GNRMC,092352.000,A,3355.75801,S,01851.70188,E,0.86,0.00,010921,,,A,V*1D
$GNRMC,092353.000,A,3355.75799,S,01851.70255,E,0.31,0.00,010921,,,A,V*1D
$GNRMC,092354.000,A,3355.75813,S,01851.70297,E,0.37,0.00,010921,,,A,V*1F
$GNRMC,092355.000,A,3355.75833,S,01851.70328,E,0.35,0.00,010921,,,A,V*1B
$GNRMC,092356.013,A,3355.75899,S,01851.70392,E,0.23,0.00,010921,,,A,V*1C
$GNRMC,092357.000,A,3355.75957,S,01851.70449,E,0.68,0.00,010921,,,A,V*12
$GNRMC,092358.000,A,3355.76006,S,01851.70506,E,0.25,0.00,010921,,,A,V*10
$GNRMC,092359.000,A,3355.76053,S,01851.70570,E,0.20,0.00,010921,,,A,V*15
$GNRMC,092400.000,A,3355.76119,S,01851.70645,E,0.00,0.00,010921,,,A,V*16
$GNRMC,092401.000,A,3355.76177,S,01851.70715,E,0.00,0.00,010921,,,A,V*1B
$GNRMC,092402.000,A,3355.76238,S,01851.70801,E,0.00,0.00,010921,,,A,V*1A
$GNRMC,092403.000,A,3355.76276,S,01851.70857,E,0.00,0.00,010921,,,A,V*12
$GNRMC,092404.000,A,3355.76308,S,01851.70906,E,0.00,0.00,010921,,,A,V*18
$GNRMC,092405.000,A,3355.76353,S,01851.70978,E,0.00,0.00,010921,,,A,V*1E
$GNRMC,092406.000,A,3355.76450,S,01851.71065,E,2.76,164.88,010921,,,A,V*1D
$GNRMC,092407.000,A,3355.76528,S,01851.71161,E,2.65,161.31,010921,,,A,V*12
$GNRMC,092408.000,A,3355.76540,S,01851.71264,E,2.15,57.41,010921,,,A,V*21
$GNRMC,092409.000,A,3355.76508,S,01851.71381,E,1.88,57.41,010921,,,A,V*21
$GNRMC,092410.000,A,3355.76490,S,01851.71490,E,2.08,89.83,010921,,,A,V*28
$GNRMC,092411.000,A,3355.76484,S,01851.71586,E,2.02,84.51,010921,,,A,V*22
$GNRMC,092412.000,A,3355.76479,S,01851.71666,E,1.67,84.51,010921,,,A,V*2E
$GNRMC,092413.000,A,3355.76470,S,01851.71755,E,2.14,71.29,010921,,,A,V*25
$GNRMC,092414.000,A,3355.76471,S,01851.71832,E,1.34,71.29,010921,,,A,V*2C
$GNRMC,092415.000,A,3355.76453,S,01851.71926,E,3.11,72.96,010921,,,A,V*2B
$GNRMC,092416.000,A,3355.76423,S,01851.72026,E,1.91,72.96,010921,,,A,V*2F
$GNRMC,092417.000,A,3355.76400,S,01851.72123,E,2.12,79.34,010921,,,A,V*20
$GNRMC,092418.000,A,3355.76374,S,01851.72227,E,2.18,83.37,010921,,,A,V*20
$GNRMC,092419.000,A,3355.76356,S,01851.72344,E,2.58,82.69,010921,,,A,V*2B
$GNRMC,092420.000,A,3355.76338,S,01851.72446,E,2.15,87.65,010921,,,A,V*2C
$GNRMC,092421.000,A,3355.76322,S,01851.72537,E,1.99,89.05,010921,,,A,V*2E
$GNRMC,092422.000,A,3355.76301,S,01851.72627,E,2.21,74.50,010921,,,A,V*2C
$GNRMC,092423.000,A,3355.76279,S,01851.72721,E,2.24,77.61,010921,,,A,V*20
$GNRMC,092424.000,A,3355.76257,S,01851.72819,E,2.51,79.95,010921,,,A,V*28
$GNRMC,092425.000,A,3355.76231,S,01851.72922,E,2.57,71.30,010921,,,A,V*21
$GNRMC,092426.000,A,3355.76209,S,01851.73017,E,2.07,73.64,010921,,,A,V*21
$GNRMC,092427.000,A,3355.76181,S,01851.73111,E,2.36,58.22,010921,,,A,V*2D
$GNRMC,092428.000,A,3355.76127,S,01851.73195,E,2.46,38.22,010921,,,A,V*23
$GNRMC,092429.000,A,3355.76063,S,01851.73261,E,2.47,34.27,010921,,,A,V*23
$GNRMC,092430.000,A,3355.75999,S,01851.73321,E,2.18,24.46,010921,,,A,V*2D
$GNRMC,092431.000,A,3355.75998,S,01851.73347,E,0.00,24.46,010921,,,A,V*26
$GNRMC,092432.000,A,3355.75996,S,01851.73369,E,0.00,24.46,010921,,,A,V*27
$GNRMC,092433.000,A,3355.75989,S,01851.73392,E,0.00,24.46,010921,,,A,V*2C
$GNRMC,092434.000,A,3355.75918,S,01851.73438,E,2.72,7.01,010921,,,A,V*11
$GNRMC,092435.000,A,3355.75809,S,01851.73502,E,3.59,12.57,010921,,,A,V*26
$GNRMC,092436.000,A,3355.75681,S,01851.73590,E,4.23,16.90,010921,,,A,V*25
$GNRMC,092437.000,A,3355.75578,S,01851.73695,E,3.27,37.74,010921,,,A,V*2D
$GNRMC,092438.000,A,3355.75545,S,01851.73741,E,0.33,37.74,010921,,,A,V*22
$GNRMC,092439.000,A,3355.75549,S,01851.73749,E,0.35,37.74,010921,,,A,V*21
$GNRMC,092440.000,A,3355.75540,S,01851.73741,E,0.56,37.74,010921,,,A,V*2B
$GNRMC,092441.000,A,3355.75582,S,01851.73728,E,1.13,37.74,010921,,,A,V*2B
$GNRMC,092442.000,A,3355.75582,S,01851.73714,E,0.57,37.74,010921,,,A,V*26
$GNRMC,092443.000,A,3355.75535,S,01851.73725,E,1.31,37.74,010921,,,A,V*28
$GNRMC,092444.000,A,3355.75473,S,01851.73735,E,1.69,37.74,010921,,,A,V*20
$GNRMC,092445.000,A,3355.75410,S,01851.73754,E,2.06,17.49,010921,,,A,V*25
$GNRMC,092446.000,A,3355.75337,S,01851.73791,E,2.74,20.66,010921,,,A,V*21
$GNRMC,092447.000,A,3355.75295,S,01851.73826,E,1.50,20.66,010921,,,A,V*2F
$GNRMC,092448.000,A,3355.75249,S,01851.73868,E,2.07,43.00,010921,,,A,V*2F
$GNRMC,092449.000,A,3355.75220,S,01851.73915,E,1.59,43.00,010921,,,A,V*22
$GNRMC,092450.000,A,3355.75185,S,01851.73990,E,2.63,69.22,010921,,,A,V*29
$GNRMC,092451.000,A,3355.75144,S,01851.74092,E,3.27,69.36,010921,,,A,V*2D
$GNRMC,092452.000,A,3355.75113,S,01851.74159,E,1.72,69.36,010921,,,A,V*28
$GNRMC,092453.000,A,3355.75084,S,01851.74205,E,1.18,69.36,010921,,,A,V*20
$GNRMC,092454.000,A,3355.75051,S,01851.74256,E,1.80,69.36,010921,,,A,V*28
$GNRMC,092455.000,A,3355.75019,S,01851.74314,E,1.88,69.36,010921,,,A,V*2A
$GNRMC,092456.000,A,3355.74982,S,01851.74366,E,1.88,69.36,010921,,,A,V*26
$GNRMC,092457.000,A,3355.74943,S,01851.74432,E,2.37,60.65,010921,,,A,V*24
$GNRMC,092458.000,A,3355.74897,S,01851.74509,E,2.36,55.52,010921,,,A,V*29
$GNRMC,092459.000,A,3355.74845,S,01851.74588,E,2.69,54.07,010921,,,A,V*25
$GNRMC,092500.000,A,3355.74793,S,01851.74672,E,2.49,56.87,010921,,,A,V*22
$GNRMC,092501.000,A,3355.74750,S,01851.74761,E,2.63,67.59,010921,,,A,V*26
$GNRMC,092502.000,A,3355.74707,S,01851.74855,E,2.85,58.38,010921,,,A,V*2C
$GNRMC,092503.000,A,3355.74669,S,01851.74932,E,1.43,58.38,010921,,,A,V*2D
$GNRMC,092504.000,A,3355.74633,S,01851.74997,E,2.15,56.85,010921,,,A,V*22
$GNRMC,092505.000,A,3355.74593,S,01851.75068,E,2.05,58.55,010921,,,A,V*20
$GNRMC,092506.000,A,3355.74566,S,01851.75146,E,2.01,71.15,010921,,,A,V*2F
$GNRMC,092507.000,A,3355.74559,S,01851.75237,E,2.58,91.93,010921,,,A,V*2B
$GNRMC,092508.000,A,3355.74542,S,01851.75337,E,2.61,73.95,010921,,,A,V*2F
$GNRMC,092509.000,A,3355.74522,S,01851.75429,E,2.71,86.85,010921,,,A,V*2A
$GNRMC,092510.000,A,3355.74496,S,01851.75518,E,2.44,71.35,010921,,,A,V*2A
$GNRMC,092511.000,A,3355.74471,S,01851.75578,E,0.91,71.35,010921,,,A,V*2E
$GNRMC,092512.000,A,3355.74449,S,01851.75638,E,2.18,63.85,010921,,,A,V*2A
$GNRMC,092513.000,A,3355.74417,S,01851.75766,E,3.77,78.57,010921,,,A,V*27
$GNRMC,092514.000,A,3355.74396,S,01851.75863,E,1.80,78.57,010921,,,A,V*2E
$GNRMC,092515.000,A,3355.74393,S,01851.75914,E,1.54,78.57,010921,,,A,V*22
$GNRMC,092516.000,A,3355.74386,S,01851.75964,E,0.95,78.57,010921,,,A,V*2E
$GNRMC,092517.000,A,3355.74366,S,01851.76001,E,1.22,78.57,010921,,,A,V*25
$GNRMC,092518.000,A,3355.74308,S,01851.76094,E,3.47,43.94,010921,,,A,V*28
$GNRMC,092519.000,A,3355.74235,S,01851.76188,E,3.29,49.74,010921,,,A,V*26
$GNRMC,092520.000,A,3355.74206,S,01851.76262,E,1.53,49.74,010921,,,A,V*24
$GNRMC,092521.000,A,3355.74202,S,01851.76351,E,2.59,90.40,010921,,,A,V*2A
$GNRMC,092522.000,A,3355.74196,S,01851.76453,E,2.81,85.93,010921,,,A,V*2D
$GNRMC,092523.000,A,3355.74192,S,01851.76532,E,1.20,85.93,010921,,,A,V*26
$GNRMC,092524.000,A,3355.74187,S,01851.76607,E,2.08,85.45,010921,,,A,V*22
$GNRMC,092525.000,A,3355.74179,S,01851.76694,E,2.04,82.40,010921,,,A,V*26
$GNRMC,092526.000,A,3355.74168,S,01851.76806,E,3.09,82.18,010921,,,A,V*21
$GNRMC,092527.000,A,3355.74148,S,01851.76942,E,3.79,76.06,010921,,,A,V*20
$GNRMC,092528.000,A,3355.74113,S,01851.77060,E,2.68,59.61,010921,,,A,V*24
$GNRMC,092529.000,A,3355.74101,S,01851.77146,E,1.87,59.61,010921,,,A,V*21
$GNRMC,092530.000,A,3355.74100,S,01851.77240,E,2.46,86.86,010921,,,A,V*28
$GNRMC,092531.000,A,3355.74110,S,01851.77370,E,3.25,107.86,010921,,,A,V*16
$GNRMC,092532.000,A,3355.74112,S,01851.77494,E,3.01,81.40,010921,,,A,V*29
$GNRMC,092533.000,A,3355.74093,S,01851.77607,E,3.03,78.32,010921,,,A,V*29
$GNRMC,092534.000,A,3355.74103,S,01851.77696,E,2.05,120.21,010921,,,A,V*17
$GNRMC,092535.000,A,3355.74091,S,01851.77779,E,2.98,70.70,010921,,,A,V*28
$GNRMC,092536.000,A,3355.74072,S,01851.77839,E,0.64,70.70,010921,,,A,V*2C
$GNRMC,092537.000,A,3355.74044,S,01851.77911,E,2.50,62.31,010921,,,A,V*20
$GNRMC,092538.000,A,3355.74016,S,01851.77996,E,2.48,74.10,010921,,,A,V*2A
$GNRMC,092539.000,A,3355.73998,S,01851.78096,E,2.56,79.57,010921,,,A,V*24
$GNRMC,092540.000,A,3355.73978,S,01851.78187,E,2.53,75.99,010921,,,A,V*2E
$GNRMC,092541.000,A,3355.73960,S,01851.78268,E,2.06,81.00,010921,,,A,V*2F
$GNRMC,092542.000,A,3355.73954,S,01851.78335,E,1.82,81.00,010921,,,A,V*2D
$GNRMC,092543.000,A,3355.73964,S,01851.78411,E,2.49,107.16,010921,,,A,V*12
$GNRMC,092544.000,A,3355.73965,S,01851.78513,E,2.80,89.71,010921,,,A,V*24
$GNRMC,092545.000,A,3355.73956,S,01851.78606,E,2.35,80.83,010921,,,A,V*28
$GNRMC,092546.000,A,3355.73951,S,01851.78690,E,2.10,90.25,010921,,,A,V*29
$GNRMC,092547.000,A,3355.73931,S,01851.78786,E,2.94,62.13,010921,,,A,V*2C
$GNRMC,092548.000,A,3355.73912,S,01851.78882,E,2.30,69.27,010921,,,A,V*2B
$GNRMC,092549.000,A,3355.73904,S,01851.78979,E,1.93,69.27,010921,,,A,V*22
$GNRMC,092550.000,A,3355.73887,S,01851.79059,E,1.81,69.27,010921,,,A,V*29
$GNRMC,092551.000,A,3355.73860,S,01851.79138,E,1.96,60.22,010921,,,A,V*2D
$GNRMC,092552.000,A,3355.73826,S,01851.79225,E,2.59,32.95,010921,,,A,V*28
$GNRMC,092553.000,A,3355.73794,S,01851.79302,E,2.46,62.74,010921,,,A,V*2F
$GNRMC,092554.000,A,3355.73771,S,01851.79421,E,3.53,85.65,010921,,,A,V*29
$GNRMC,092555.000,A,3355.73760,S,01851.79530,E,2.40,83.67,010921,,,A,V*2E
$GNRMC,092556.000,A,3355.73751,S,01851.79629,E,2.44,84.75,010921,,,A,V*24
$GNRMC,092557.000,A,3355.73742,S,01851.79726,E,2.41,84.84,010921,,,A,V*22
$GNRMC,092558.000,A,3355.73739,S,01851.79821,E,2.48,90.08,010921,,,A,V*21
$GNRMC,092559.000,A,3355.73743,S,01851.79915,E,2.22,94.32,010921,,,A,V*2A
$GNRMC,092600.000,A,3355.73776,S,01851.80015,E,3.04,115.65,010921,,,A,V*13
$GNRMC,092601.000,A,3355.73801,S,01851.80115,E,2.85,100.12,010921,,,A,V*10
$GNRMC,092602.000,A,3355.73794,S,01851.80212,E,2.53,74.28,010921,,,A,V*24
$GNRMC,092603.000,A,3355.73755,S,01851.80295,E,2.75,46.55,010921,,,A,V*28
$GNRMC,092604.000,A,3355.73718,S,01851.80376,E,2.50,82.97,010921,,,A,V*2B
$GNRMC,092605.000,A,3355.73716,S,01851.80479,E,2.87,86.82,010921,,,A,V*26
$GNRMC,092606.000,A,3355.73717,S,01851.80601,E,3.79,87.84,010921,,,A,V*2E
$GNRMC,092607.000,A,3355.73721,S,01851.80726,E,3.09,89.41,010921,,,A,V*2E
$GNRMC,092608.000,A,3355.73759,S,01851.80832,E,3.31,130.08,010921,,,A,V*11
$GNRMC,092609.000,A,3355.73814,S,01851.80929,E,3.26,125.04,010921,,,A,V*13
$GNRMC,092610.000,A,3355.73854,S,01851.80998,E,1.88,125.04,010921,,,A,V*13
$GNRMC,092611.000,A,3355.73878,S,01851.81061,E,1.78,125.04,010921,,,A,V*1D
$GNRMC,092612.000,A,3355.73899,S,01851.81149,E,2.77,97.23,010921,,,A,V*2B
$GNRMC,092613.000,A,3355.73912,S,01851.81238,E,2.33,96.16,010921,,,A,V*2A
$GNRMC,092614.000,A,3355.73927,S,01851.81319,E,2.37,103.10,010921,,,A,V*16
$GNRMC,092615.000,A,3355.73960,S,01851.81384,E,2.17,120.68,010921,,,A,V*1C
$GNRMC,092616.000,A,3355.73993,S,01851.81458,E,2.30,122.09,010921,,,A,V*15
$GNRMC,092617.000,A,3355.74034,S,01851.81532,E,2.34,132.11,010921,,,A,V*16
$GNRMC,092618.000,A,3355.74084,S,01851.81587,E,2.26,148.44,010921,,,A,V*12
$GNRMC,092619.000,A,3355.74142,S,01851.81645,E,2.71,147.53,010921,,,A,V*1E
$GNRMC,092620.000,A,3355.74209,S,01851.81693,E,2.53,154.23,010921,,,A,V*16
$GNRMC,092621.000,A,3355.74278,S,01851.81732,E,2.77,160.86,010921,,,A,V*15
$GNRMC,092622.000,A,3355.74343,S,01851.81772,E,2.32,155.47,010921,,,A,V*11
$GNRMC,092623.000,A,3355.74387,S,01851.81806,E,1.46,155.47,010921,,,A,V*14
$GNRMC,092624.000,A,3355.74435,S,01851.81837,E,2.29,159.81,010921,,,A,V*13
$GNRMC,092625.000,A,3355.74484,S,01851.81868,E,1.75,159.81,010921,,,A,V*18
$GNRMC,092626.000,A,3355.74549,S,01851.81888,E,2.57,176.26,010921,,,A,V*16
$GNRMC,092627.000,A,3355.74622,S,01851.81904,E,2.71,177.51,010921,,,A,V*19
$GNRMC,092628.000,A,3355.74687,S,01851.81916,E,2.40,176.35,010921,,,A,V*1B
$GNRMC,092629.000,A,3355.74749,S,01851.81930,E,2.32,179.66,010921,,,A,V*11
$GNRMC,092630.000,A,3355.74814,S,01851.81943,E,2.45,176.56,010921,,,A,V*16
$GNRMC,092631.000,A,3355.74878,S,01851.81960,E,2.30,171.86,010921,,,A,V*14
$GNRMC,092632.000,A,3355.74945,S,01851.81978,E,2.41,172.69,010921,,,A,V*15
$GNRMC,092633.000,A,3355.75012,S,01851.82000,E,2.47,168.33,010921,,,A,V*19
$GNRMC,092634.000,A,3355.75072,S,01851.82031,E,2.25,167.64,010921,,,A,V*13
$GNRMC,092635.000,A,3355.75127,S,01851.82063,E,2.08,166.02,010921,,,A,V*1A
$GNRMC,092636.000,A,3355.75186,S,01851.82090,E,2.19,170.98,010921,,,A,V*1A
$GNRMC,092637.000,A,3355.75252,S,01851.82097,E,2.17,177.09,010921,,,A,V*17
$GNRMC,092638.000,A,3355.75318,S,01851.82107,E,2.26,172.32,010921,,,A,V*10
$GNRMC,092639.000,A,3355.75386,S,01851.82115,E,2.18,182.96,010921,,,A,V*19
$GNRMC,092640.000,A,3355.75444,S,01851.82126,E,1.63,182.96,010921,,,A,V*11
$GNRMC,092641.000,A,3355.75485,S,01851.82146,E,1.35,182.96,010921,,,A,V*18
$GNRMC,092642.000,A,3355.75532,S,01851.82133,E,1.92,182.96,010921,,,A,V*19
$GNRMC,092643.000,A,3355.75579,S,01851.82090,E,2.10,222.14,010921,,,A,V*15
$GNRMC,092644.000,A,3355.75627,S,01851.82055,E,1.62,222.14,010921,,,A,V*15
$GNRMC,092645.000,A,3355.75631,S,01851.82054,E,0.00,222.14,010921,,,A,V*17
$GNRMC,092646.000,A,3355.75630,S,01851.82058,E,0.00,222.14,010921,,,A,V*19
$GNRMC,092647.000,A,3355.75632,S,01851.82060,E,0.00,222.14,010921,,,A,V*11
$GNRMC,092648.000,A,3355.75637,S,01851.82059,E,0.00,222.14,010921,,,A,V*11
$GNRMC,092649.000,A,3355.75645,S,01851.82057,E,0.00,222.14,010921,,,A,V*1B
$GNRMC,092650.000,A,3355.75672,S,01851.82027,E,1.02,222.14,010921,,,A,V*13
$GNRMC,092651.000,A,3355.75703,S,01851.81985,E,1.55,222.14,010921,,,A,V*15
$GNRMC,092652.000,A,3355.75730,S,01851.81931,E,2.36,243.03,010921,,,A,V*1E
$GNRMC,092653.000,A,3355.75746,S,01851.81894,E,0.85,243.03,010921,,,A,V*1A
$GNRMC,092654.000,A,3355.75757,S,01851.81856,E,1.24,243.03,010921,,,A,V*19
$GNRMC,092655.000,A,3355.75778,S,01851.81788,E,2.47,267.85,010921,,,A,V*17
$GNRMC,092656.000,A,3355.75787,S,01851.81705,E,2.48,271.69,010921,,,A,V*1B
$GNRMC,092657.000,A,3355.75799,S,01851.81640,E,1.89,271.69,010921,,,A,V*1B
$GNRMC,092658.000,A,3355.75817,S,01851.81615,E,0.67,271.69,010921,,,A,V*1C
$GNRMC,092659.000,A,3355.75845,S,01851.81581,E,1.30,271.69,010921,,,A,V*17
$GNRMC,092700.000,A,3355.75868,S,01851.81513,E,1.97,258.51,010921,,,A,V*13
$GNRMC,092701.000,A,3355.75898,S,01851.81446,E,1.66,258.51,010921,,,A,V*12
$GNRMC,092702.000,A,3355.75919,S,01851.81377,E,2.30,270.42,010921,,,A,V*14
$GNRMC,092703.000,A,3355.75939,S,01851.81299,E,2.05,260.80,010921,,,A,V*1F
$GNRMC,092704.000,A,3355.75963,S,01851.81227,E,2.24,264.88,010921,,,A,V*1D
$GNRMC,092705.000,A,3355.75985,S,01851.81161,E,1.68,264.88,010921,,,A,V*1E
$GNRMC,092706.000,A,3355.76009,S,01851.81127,E,0.50,264.88,010921,,,A,V*1B
$GNRMC,092707.000,A,3355.76038,S,01851.81101,E,0.84,264.88,010921,,,A,V*15
$GNRMC,092708.000,A,3355.76050,S,01851.81061,E,1.37,264.88,010921,,,A,V*1A
$GNRMC,092709.000,A,3355.76076,S,01851.80989,E,1.99,265.78,010921,,,A,V*1B
$GNRMC,092710.000,A,3355.76094,S,01851.80915,E,2.03,269.29,010921,,,A,V*12
$GNRMC,092711.000,A,3355.76110,S,01851.80843,E,1.76,269.29,010921,,,A,V*1D
$GNRMC,092712.000,A,3355.76122,S,01851.80770,E,2.16,279.76,010921,,,A,V*1E
$GNRMC,092713.000,A,3355.76128,S,01851.80685,E,2.05,272.53,010921,,,A,V*10
$GNRMC,092714.000,A,3355.76154,S,01851.80630,E,1.39,272.53,010921,,,A,V*1E
$GNRMC,092715.000,A,3355.76185,S,01851.80557,E,2.27,259.56,010921,,,A,V*11
$GNRMC,092716.000,A,3355.76207,S,01851.80471,E,2.40,269.05,010921,,,A,V*1A
$GNRMC,092717.000,A,3355.76230,S,01851.80378,E,2.84,260.59,010921,,,A,V*19
$GNRMC,092718.000,A,3355.76267,S,01851.80308,E,1.44,260.59,010921,,,A,V*1C
$GNRMC,092719.000,A,3355.76279,S,01851.80255,E,1.37,260.59,010921,,,A,V*1F
$GNRMC,092720.000,A,3355.76273,S,01851.80171,E,2.58,287.70,010921,,,A,V*12
$GNRMC,092721.000,A,3355.76282,S,01851.80090,E,1.56,287.70,010921,,,A,V*1E
$GNRMC,092722.000,A,3355.76294,S,01851.80019,E,1.68,287.70,010921,,,A,V*16
$GNRMC,092723.000,A,3355.76316,S,01851.79953,E,1.65,287.70,010921,,,A,V*10
$GNRMC,092724.000,A,3355.76350,S,01851.79895,E,1.61,287.70,010921,,,A,V*1A
$GNRMC,092725.000,A,3355.76373,S,01851.79843,E,1.39,287.70,010921,,,A,V*1C
$GNRMC,092726.000,A,3355.76390,S,01851.79785,E,1.17,287.70,010921,,,A,V*1B
$GNRMC,092727.000,A,3355.76411,S,01851.79719,E,1.64,287.70,010921,,,A,V*15
$GNRMC,092728.000,A,3355.76435,S,01851.79619,E,2.56,262.19,010921,,,A,V*1B
$GNRMC,092729.000,A,3355.76444,S,01851.79526,E,2.22,267.09,010921,,,A,V*14
$GNRMC,092730.000,A,3355.76462,S,01851.79434,E,1.68,267.09,010921,,,A,V*17
$GNRMC,092731.000,A,3355.76476,S,01851.79340,E,2.49,273.13,010921,,,A,V*19
$GNRMC,092732.000,A,3355.76500,S,01851.79229,E,2.37,256.93,010921,,,A,V*12
$GNRMC,092733.000,A,3355.76517,S,01851.79153,E,2.15,266.13,010921,,,A,V*10
$GNRMC,092734.000,A,3355.76534,S,01851.79050,E,1.89,266.13,010921,,,A,V*12
$GNRMC,092735.000,A,3355.76552,S,01851.78971,E,1.60,266.13,010921,,,A,V*1F
$GNRMC,092736.000,A,3355.76580,S,01851.78885,E,1.64,266.13,010921,,,A,V*1D
$GNRMC,092737.000,A,3355.76595,S,01851.78793,E,1.88,266.13,010921,,,A,V*12
$GNRMC,092738.000,A,3355.76600,S,01851.78700,E,1.68,266.13,010921,,,A,V*16
$GNRMC,092739.000,A,3355.76606,S,01851.78614,E,1.38,266.13,010921,,,A,V*10
$GNRMC,092740.000,A,3355.76621,S,01851.78542,E,1.40,266.13,010921,,,A,V*14
$GNRMC,092741.000,A,3355.76645,S,01851.78456,E,1.84,266.13,010921,,,A,V*1B
$GNRMC,092742.000,A,3355.76664,S,01851.78386,E,1.09,266.13,010921,,,A,V*14
$GNRMC,092743.000,A,3355.76683,S,01851.78316,E,1.74,266.13,010921,,,A,V*1F
$GNRMC,092744.000,A,3355.76695,S,01851.78218,E,1.58,266.13,010921,,,A,V*1E
$GNRMC,092745.000,A,3355.76709,S,01851.78108,E,2.03,266.02,010921,,,A,V*14
$GNRMC,092746.000,A,3355.76722,S,01851.78000,E,1.90,266.02,010921,,,A,V*1E
$GNRMC,092747.000,A,3355.76747,S,01851.77901,E,1.96,245.45,010921,,,A,V*1F
$GNRMC,092748.000,A,3355.76774,S,01851.77795,E,2.44,253.54,010921,,,A,V*18
$GNRMC,092749.000,A,3355.76810,S,01851.77684,E,2.65,240.22,010921,,,A,V*15
$GNRMC,092750.000,A,3355.76835,S,01851.77575,E,2.24,265.62,010921,,,A,V*11
$GNRMC,092751.000,A,3355.76853,S,01851.77483,E,1.57,265.62,010921,,,A,V*1F
$GNRMC,092752.000,A,3355.76876,S,01851.77389,E,2.02,254.07,010921,,,A,V*14
$GNRMC,092753.000,A,3355.76895,S,01851.77293,E,2.21,255.37,010921,,,A,V*11
$GNRMC,092754.000,A,3355.76907,S,01851.77201,E,2.02,265.87,010921,,,A,V*1E
$GNRMC,092755.000,A,3355.76916,S,01851.77100,E,2.48,267.10,010921,,,A,V*1F
$GNRMC,092756.000,A,3355.76910,S,01851.77006,E,2.04,270.95,010921,,,A,V*1E
$GNRMC,092757.000,A,3355.76919,S,01851.76940,E,1.00,270.95,010921,,,A,V*1B
$GNRMC,092758.000,A,3355.76927,S,01851.76864,E,1.72,270.95,010921,,,A,V*1B
$GNRMC,092759.000,A,3355.76941,S,01851.76763,E,2.20,259.61,010921,,,A,V*16
$GNRMC,092800.000,A,3355.76950,S,01851.76694,E,1.39,259.61,010921,,,A,V*17
$GNRMC,092801.000,A,3355.76956,S,01851.76571,E,4.12,268.41,010921,,,A,V*14
$GNRMC,092802.000,A,3355.76970,S,01851.76441,E,3.01,258.59,010921,,,A,V*1E
$GNRMC,092803.000,A,3355.76991,S,01851.76344,E,2.37,258.95,010921,,,A,V*16
$GNRMC,092804.000,A,3355.77000,S,01851.76247,E,2.12,269.53,010921,,,A,V*1C
$GNRMC,092805.000,A,3355.77002,S,01851.76151,E,2.36,270.51,010921,,,A,V*17
$GNRMC,092806.000,A,3355.77005,S,01851.76061,E,2.05,265.91,010921,,,A,V*19
$GNRMC,092807.000,A,3355.77009,S,01851.75971,E,2.12,275.93,010921,,,A,V*1A
$GNRMC,092808.000,A,3355.77025,S,01851.75886,E,1.87,275.93,010921,,,A,V*1D
$GNRMC,092809.000,A,3355.77039,S,01851.75785,E,2.46,271.12,010921,,,A,V*1E
$GNRMC,092810.000,A,3355.77038,S,01851.75689,E,2.21,266.46,010921,,,A,V*1C
$GNRMC,092811.000,A,3355.77030,S,01851.75583,E,2.94,265.98,010921,,,A,V*12
$GNRMC,092812.000,A,3355.77028,S,01851.75481,E,2.14,258.84,010921,,,A,V*10
$GNRMC,092813.000,A,3355.77038,S,01851.75387,E,2.50,260.14,010921,,,A,V*13
$GNRMC,092814.000,A,3355.77046,S,01851.75293,E,2.19,269.45,010921,,,A,V*19
$GNRMC,092815.000,A,3355.77057,S,01851.75209,E,2.08,262.06,010921,,,A,V*17
$GNRMC,092816.000,A,3355.77053,S,01851.75118,E,2.96,273.42,010921,,,A,V*14
$GNRMC,092817.000,A,3355.77048,S,01851.75008,E,2.77,274.02,010921,,,A,V*13
$GNRMC,092818.000,A,3355.77032,S,01851.74937,E,1.53,274.02,010921,,,A,V*10
$GNRMC,092819.000,A,3355.77008,S,01851.74878,E,1.81,274.02,010921,,,A,V*1D
$GNRMC,092820.000,A,3355.76979,S,01851.74802,E,2.47,286.70,010921,,,A,V*15
$GNRMC,092821.000,A,3355.76954,S,01851.74741,E,1.54,286.70,010921,,,A,V*12
$GNRMC,092822.000,A,3355.76880,S,01851.74734,E,3.45,17.70,010921,,,A,V*23
$GNRMC,092823.000,A,3355.76787,S,01851.74690,E,4.17,331.37,010921,,,A,V*11
$GNRMC,092824.000,A,3355.76713,S,01851.74565,E,4.56,303.82,010921,,,A,V*18
$GNRMC,092825.000,A,3355.76707,S,01851.74471,E,3.18,285.74,010921,,,A,V*13
$GNRMC,092826.000,A,3355.76689,S,01851.74359,E,2.88,293.34,010921,,,A,V*11
$GNRMC,092827.000,A,3355.76700,S,01851.74335,E,0.00,293.34,010921,,,A,V*18
$GNRMC,092828.000,A,3355.76706,S,01851.74298,E,0.00,293.34,010921,,,A,V*17
$GNRMC,092829.000,A,3355.76714,S,01851.74268,E,0.00,293.34,010921,,,A,V*1A
$GNRMC,092830.000,A,3355.76688,S,01851.74160,E,2.81,300.03,010921,,,A,V*19
$GNRMC,092831.000,A,3355.76659,S,01851.74053,E,2.30,294.10,010921,,,A,V*11
$GNRMC,092832.000,A,3355.76649,S,01851.73940,E,2.36,285.35,010921,,,A,V*1E
$GNRMC,092833.000,A,3355.76646,S,01851.73847,E,1.48,285.35,010921,,,A,V*1C
$GNRMC,092834.000,A,3355.76657,S,01851.73737,E,2.49,272.41,010921,,,A,V*1A
$GNRMC,092835.000,A,3355.76640,S,01851.73641,E,1.89,272.41,010921,,,A,V*12
$GNRMC,092836.000,A,3355.76624,S,01851.73573,E,1.60,272.41,010921,,,A,V*16
$GNRMC,092837.000,A,3355.76606,S,01851.73496,E,1.74,272.41,010921,,,A,V*18
$GNRMC,092838.000,A,3355.76524,S,01851.73429,E,5.18,342.75,010921,,,A,V*1B
$GNRMC,092839.000,A,3355.76440,S,01851.73323,E,4.71,316.64,010921,,,A,V*1B
$GNRMC,092840.000,A,3355.76402,S,01851.73208,E,3.60,311.58,010921,,,A,V*14
$GNRMC,092841.000,A,3355.76300,S,01851.73046,E,6.39,302.58,010921,,,A,V*13
$GNRMC,092842.000,A,3355.76270,S,01851.72877,E,3.82,293.34,010921,,,A,V*1B
$GNRMC,092843.000,A,3355.76279,S,01851.72728,E,3.56,290.72,010921,,,A,V*1E
$GNRMC,092844.000,A,3355.76275,S,01851.72581,E,3.22,295.27,010921,,,A,V*12
$GNRMC,092845.000,A,3355.76278,S,01851.72450,E,2.74,294.63,010921,,,A,V*10
$GNRMC,092846.000,A,3355.76280,S,01851.72360,E,2.08,302.25,010921,,,A,V*17
$GNRMC,092847.000,A,3355.76297,S,01851.72339,E,0.00,302.25,010921,,,A,V*16
