//a


$GNRMC,103548.000,V,,,,,,,010921,,,M,V*2A
$GNRMC,103549.000,V,,,,,,,010921,,,M,V*2B
$GNRMC,103550.000,V,,,,,,,010921,,,M,V*23
$GNRMC,103551.000,V,,,,,,,010921,,,M,V*22
$GNRMC,103552.000,V,,,,,,,010921,,,M,V*21
$GNRMC,103553.000,V,,,,,,,010921,,,M,V*20
$GNRMC,103555.005,A,3356.05315,S,01851.76953,E,0.53,0.00,010921,,,E,V*1E
$GNRMC,103555.995,A,3356.05291,S,01851.76913,E,0.63,0.00,010921,,,A,V*10
$GNRMC,103557.000,A,3356.05248,S,01851.76873,E,0.89,0.00,010921,,,A,V*10
$GNRMC,103558.000,A,3356.05195,S,01851.76845,E,0.39,0.00,010921,,,A,V*12
$GNRMC,103559.000,A,3356.05154,S,01851.76841,E,0.96,0.00,010921,,,A,V*1F
$GNRMC,103600.000,A,3356.05129,S,01851.76847,E,0.85,0.00,010921,,,A,V*1E
$GNRMC,103601.000,A,3356.05147,S,01851.76842,E,0.78,0.00,010921,,,A,V*10
$GNRMC,103601.997,A,3356.05147,S,01851.76819,E,0.31,0.00,010921,,,A,V*14
$GNRMC,103603.000,A,3356.05089,S,01851.76787,E,0.36,0.00,010921,,,A,V*1D
$GNRMC,103604.000,A,3356.05022,S,01851.76754,E,0.50,0.00,010921,,,A,V*15
$GNRMC,103605.000,A,3356.04964,S,01851.76716,E,0.25,0.00,010921,,,A,V*1A
$GNRMC,103606.000,A,3356.04913,S,01851.76694,E,0.58,0.00,010921,,,A,V*18
$GNRMC,103607.000,A,3356.04850,S,01851.76677,E,0.09,0.00,010921,,,A,V*16
$GNRMC,103608.000,A,3356.04767,S,01851.76670,E,0.54,0.00,010921,,,A,V*1D
$GNRMC,103609.000,A,3356.04684,S,01851.76666,E,0.20,0.00,010921,,,A,V*14
$GNRMC,103610.000,A,3356.04608,S,01851.76654,E,0.42,0.00,010921,,,A,V*1D
$GNRMC,103611.000,A,3356.04539,S,01851.76601,E,0.79,0.00,010921,,,A,V*15
$GNRMC,103612.000,A,3356.04461,S,01851.76508,E,0.00,0.00,010921,,,A,V*1E
$GNRMC,103613.000,A,3356.04440,S,01851.76454,E,0.00,0.00,010921,,,A,V*14
$GNRMC,103614.000,A,3356.04413,S,01851.76434,E,0.00,0.00,010921,,,A,V*13
$GNRMC,103615.000,A,3356.04415,S,01851.76424,E,1.12,0.00,010921,,,A,V*17
$GNRMC,103616.000,A,3356.04388,S,01851.76419,E,0.00,0.00,010921,,,A,V*1B
$GNRMC,103617.000,A,3356.04357,S,01851.76398,E,0.00,0.00,010921,,,A,V*16
$GNRMC,103618.000,A,3356.04325,S,01851.76389,E,0.00,0.00,010921,,,A,V*1C
$GNRMC,103619.000,A,3356.04333,S,01851.76406,E,0.81,0.00,010921,,,A,V*13
$GNRMC,103620.000,A,3356.04337,S,01851.76410,E,0.00,0.00,010921,,,A,V*13
$GNRMC,103621.000,A,3356.04316,S,01851.76411,E,0.00,0.00,010921,,,A,V*10
$GNRMC,103622.000,A,3356.04290,S,01851.76408,E,0.00,0.00,010921,,,A,V*14
$GNRMC,103623.000,A,3356.04292,S,01851.76413,E,0.00,0.00,010921,,,A,V*1D
$GNRMC,103624.000,A,3356.04275,S,01851.76420,E,0.00,0.00,010921,,,A,V*13
$GNRMC,103625.000,A,3356.04272,S,01851.76423,E,0.00,0.00,010921,,,A,V*16
$GNRMC,103626.000,A,3356.04265,S,01851.76426,E,0.00,0.00,010921,,,A,V*16
$GNRMC,103627.000,A,3356.04259,S,01851.76430,E,0.00,0.00,010921,,,A,V*1F
$GNRMC,103628.000,A,3356.04251,S,01851.76433,E,0.00,0.00,010921,,,A,V*1B
$GNRMC,103629.000,A,3356.04242,S,01851.76438,E,0.00,0.00,010921,,,A,V*13
$GNRMC,103630.000,A,3356.04234,S,01851.76447,E,0.09,0.00,010921,,,A,V*1B
$GNRMC,103631.000,A,3356.04223,S,01851.76460,E,0.00,0.00,010921,,,A,V*10
$GNRMC,103632.000,A,3356.04200,S,01851.76478,E,0.00,0.00,010921,,,A,V*1B
$GNRMC,103633.000,A,3356.04195,S,01851.76499,E,0.00,0.00,010921,,,A,V*1A
$GNRMC,103634.000,A,3356.04196,S,01851.76515,E,0.00,0.00,010921,,,A,V*1B
$GNRMC,103635.000,A,3356.04196,S,01851.76525,E,0.00,0.00,010921,,,A,V*19
$GNRMC,103636.000,A,3356.04191,S,01851.76538,E,0.00,0.00,010921,,,A,V*11
$GNRMC,103637.000,A,3356.04187,S,01851.76549,E,0.00,0.00,010921,,,A,V*11
$GNRMC,103638.000,A,3356.04188,S,01851.76566,E,0.00,0.00,010921,,,A,V*1C
$GNRMC,103639.000,A,3356.04161,S,01851.76592,E,1.23,0.00,010921,,,A,V*11
$GNRMC,103640.000,A,3356.04124,S,01851.76616,E,1.42,0.00,010921,,,A,V*16
$GNRMC,103641.000,A,3356.04071,S,01851.76657,E,1.77,0.00,010921,,,A,V*15
$GNRMC,103642.000,A,3356.04037,S,01851.76709,E,1.51,0.00,010921,,,A,V*1A
$GNRMC,103643.000,A,3356.04015,S,01851.76759,E,1.48,0.00,010921,,,A,V*16
$GNRMC,103644.000,A,3356.04001,S,01851.76808,E,1.10,0.00,010921,,,A,V*12
$GNRMC,103645.000,A,3356.03959,S,01851.76843,E,1.09,0.00,010921,,,A,V*17
$GNRMC,103646.000,A,3356.03924,S,01851.76848,E,1.20,0.00,010921,,,A,V*1E
$GNRMC,103647.000,A,3356.03888,S,01851.76864,E,1.05,0.00,010921,,,A,V*11
$GNRMC,103648.000,A,3356.03869,S,01851.76877,E,1.05,0.00,010921,,,A,V*13
$GNRMC,103649.000,A,3356.03847,S,01851.76878,E,0.96,0.00,010921,,,A,V*1A
$GNRMC,103650.000,A,3356.03832,S,01851.76865,E,0.99,0.00,010921,,,A,V*13
$GNRMC,103651.000,A,3356.03827,S,01851.76863,E,0.31,0.00,010921,,,A,V*12
$GNRMC,103652.000,A,3356.03839,S,01851.76872,E,1.04,0.00,010921,,,A,V*19
$GNRMC,103653.000,A,3356.03847,S,01851.76888,E,0.00,0.00,010921,,,A,V*11
$GNRMC,103654.000,A,3356.03849,S,01851.76889,E,0.00,0.00,010921,,,A,V*19
$GNRMC,103655.000,A,3356.03863,S,01851.76901,E,0.00,0.00,010921,,,A,V*11
$GNRMC,103656.000,A,3356.03906,S,01851.76959,E,1.85,0.00,010921,,,A,V*11
$GNRMC,103657.000,A,3356.03971,S,01851.76988,E,1.79,0.00,010921,,,A,V*1F
$GNRMC,103658.000,A,3356.04019,S,01851.77013,E,1.52,0.00,010921,,,A,V*13
$GNRMC,103659.000,A,3356.04080,S,01851.77058,E,1.85,0.00,010921,,,A,V*17
$GNRMC,103700.000,A,3356.04106,S,01851.77079,E,1.20,0.00,010921,,,A,V*19
$GNRMC,103701.000,A,3356.04120,S,01851.77117,E,1.23,0.00,010921,,,A,V*16
$GNRMC,103702.000,A,3356.04150,S,01851.77180,E,1.87,0.00,010921,,,A,V*12
$GNRMC,103703.000,A,3356.04158,S,01851.77267,E,2.27,85.45,010921,,,A,V*24
$GNRMC,103704.000,A,3356.04167,S,01851.77323,E,1.76,85.45,010921,,,A,V*29
$GNRMC,103705.000,A,3356.04184,S,01851.77365,E,1.23,85.45,010921,,,A,V*27
$GNRMC,103706.000,A,3356.04205,S,01851.77386,E,0.93,85.45,010921,,,A,V*29
$GNRMC,103707.000,A,3356.04198,S,01851.77418,E,0.94,85.45,010921,,,A,V*28
$GNRMC,103708.000,A,3356.04185,S,01851.77466,E,1.30,85.45,010921,,,A,V*2D
$GNRMC,103709.000,A,3356.04171,S,01851.77513,E,1.37,85.45,010921,,,A,V*23
$GNRMC,103710.000,A,3356.04170,S,01851.77559,E,0.89,85.45,010921,,,A,V*20
$GNRMC,103711.000,A,3356.04198,S,01851.77600,E,1.74,85.45,010921,,,A,V*2B
$GNRMC,103712.000,A,3356.04235,S,01851.77666,E,2.34,119.38,010921,,,A,V*15
$GNRMC,103713.000,A,3356.04245,S,01851.77753,E,2.48,84.42,010921,,,A,V*27
$GNRMC,103714.000,A,3356.04251,S,01851.77822,E,2.00,85.38,010921,,,A,V*2C
$GNRMC,103715.000,A,3356.04254,S,01851.77879,E,1.89,85.38,010921,,,A,V*24
$GNRMC,103716.000,A,3356.04241,S,01851.77949,E,2.36,67.56,010921,,,A,V*22
$GNRMC,103717.000,A,3356.04237,S,01851.78014,E,2.26,77.85,010921,,,A,V*22
$GNRMC,103718.000,A,3356.04237,S,01851.78087,E,1.71,77.85,010921,,,A,V*26
$GNRMC,103719.000,A,3356.04259,S,01851.78142,E,1.53,77.85,010921,,,A,V*27
$GNRMC,103720.000,A,3356.04274,S,01851.78182,E,1.01,77.85,010921,,,A,V*29
$GNRMC,103721.000,A,3356.04273,S,01851.78223,E,1.28,77.85,010921,,,A,V*2C
$GNRMC,103722.000,A,3356.04264,S,01851.78280,E,1.44,77.85,010921,,,A,V*2A
$GNRMC,103723.000,A,3356.04252,S,01851.78342,E,1.70,77.85,010921,,,A,V*26
$GNRMC,103724.000,A,3356.04261,S,01851.78433,E,3.24,101.26,010921,,,A,V*1A
$GNRMC,103725.000,A,3356.04272,S,01851.78543,E,2.93,93.78,010921,,,A,V*23
$GNRMC,103726.000,A,3356.04270,S,01851.78617,E,1.50,93.78,010921,,,A,V*2C
$GNRMC,103727.000,A,3356.04259,S,01851.78691,E,2.12,81.04,010921,,,A,V*25
$GNRMC,103728.000,A,3356.04250,S,01851.78768,E,1.89,81.04,010921,,,A,V*25
$GNRMC,103729.000,A,3356.04247,S,01851.78836,E,1.75,81.04,010921,,,A,V*25
$GNRMC,103730.000,A,3356.04253,S,01851.78910,E,2.19,107.35,010921,,,A,V*19
$GNRMC,103731.000,A,3356.04259,S,01851.79005,E,3.22,88.20,010921,,,A,V*25
$GNRMC,103732.000,A,3356.04251,S,01851.79111,E,2.86,76.91,010921,,,A,V*2E
$GNRMC,103733.000,A,3356.04222,S,01851.79189,E,2.26,59.52,010921,,,A,V*22
$GNRMC,103734.000,A,3356.04199,S,01851.79250,E,1.51,59.52,010921,,,A,V*22
$GNRMC,103735.000,A,3356.04189,S,01851.79315,E,1.27,59.52,010921,,,A,V*23
$GNRMC,103736.000,A,3356.04180,S,01851.79377,E,1.98,73.22,010921,,,A,V*26
$GNRMC,103737.000,A,3356.04178,S,01851.79392,E,0.00,73.22,010921,,,A,V*2B
$GNRMC,103738.000,A,3356.04179,S,01851.79403,E,0.00,73.22,010921,,,A,V*2A
$GNRMC,103739.000,A,3356.04181,S,01851.79415,E,0.00,73.22,010921,,,A,V*2B
$GNRMC,103740.000,A,3356.04169,S,01851.79496,E,2.49,75.50,010921,,,A,V*24
$GNRMC,103741.000,A,3356.04181,S,01851.79557,E,1.46,75.50,010921,,,A,V*23
$GNRMC,103742.000,A,3356.04190,S,01851.79617,E,1.35,75.50,010921,,,A,V*23
$GNRMC,103743.000,A,3356.04165,S,01851.79669,E,1.54,75.50,010921,,,A,V*26
$GNRMC,103744.000,A,3356.04133,S,01851.79720,E,1.56,75.50,010921,,,A,V*2C
$GNRMC,103745.000,A,3356.04111,S,01851.79812,E,2.47,75.60,010921,,,A,V*23
$GNRMC,103746.000,A,3356.04096,S,01851.79929,E,2.49,78.29,010921,,,A,V*29
$GNRMC,103747.000,A,3356.04099,S,01851.80020,E,2.33,95.84,010921,,,A,V*28
$GNRMC,103748.000,A,3356.04124,S,01851.80089,E,1.99,113.26,010921,,,A,V*17
$GNRMC,103749.000,A,3356.04138,S,01851.80165,E,1.61,113.26,010921,,,A,V*1F
$GNRMC,103750.000,A,3356.04141,S,01851.80198,E,0.00,113.26,010921,,,A,V*1D
$GNRMC,103751.000,A,3356.04146,S,01851.80217,E,0.00,113.26,010921,,,A,V*1F
$GNRMC,103752.000,A,3356.04152,S,01851.80235,E,0.00,113.26,010921,,,A,V*19
$GNRMC,103753.000,A,3356.04156,S,01851.80282,E,0.91,113.26,010921,,,A,V*18
$GNRMC,103754.000,A,3356.04155,S,01851.80346,E,0.91,113.26,010921,,,A,V*15
$GNRMC,103755.000,A,3356.04157,S,01851.80408,E,0.94,113.26,010921,,,A,V*1E
$GNRMC,103756.000,A,3356.04161,S,01851.80489,E,1.63,113.26,010921,,,A,V*18
$GNRMC,103757.000,A,3356.04154,S,01851.80589,E,2.15,81.43,010921,,,A,V*25
$GNRMC,103758.000,A,3356.04140,S,01851.80702,E,1.95,73.71,010921,,,A,V*29
$GNRMC,103759.000,A,3356.04140,S,01851.80807,E,2.19,92.64,010921,,,A,V*2E
$GNRMC,103800.000,A,3356.04154,S,01851.80916,E,1.87,92.64,010921,,,A,V*2D
$GNRMC,103801.000,A,3356.04172,S,01851.81022,E,2.35,98.45,010921,,,A,V*24
$GNRMC,103802.000,A,3356.04194,S,01851.81135,E,1.92,98.45,010921,,,A,V*26
$GNRMC,103803.000,A,3356.04210,S,01851.81230,E,1.65,98.45,010921,,,A,V*26
$GNRMC,103804.000,A,3356.04211,S,01851.81338,E,2.57,83.64,010921,,,A,V*22
$GNRMC,103805.000,A,3356.04195,S,01851.81448,E,2.43,79.12,010921,,,A,V*2D
$GNRMC,103806.000,A,3356.04184,S,01851.81537,E,1.17,79.12,010921,,,A,V*25
$GNRMC,103807.000,A,3356.04174,S,01851.81611,E,1.03,79.12,010921,,,A,V*29
$GNRMC,103808.000,A,3356.04173,S,01851.81702,E,1.69,79.12,010921,,,A,V*2E
$GNRMC,103809.000,A,3356.04193,S,01851.81801,E,2.24,107.98,010921,,,A,V*1D
$GNRMC,103810.000,A,3356.04202,S,01851.81908,E,2.04,81.99,010921,,,A,V*2A
$GNRMC,103811.000,A,3356.04196,S,01851.81999,E,1.40,81.99,010921,,,A,V*2E
$GNRMC,103812.000,A,3356.04199,S,01851.82040,E,0.00,81.99,010921,,,A,V*29
$GNRMC,103813.000,A,3356.04203,S,01851.82071,E,0.00,81.99,010921,,,A,V*2A
$GNRMC,103814.000,A,3356.04205,S,01851.82108,E,0.00,81.99,010921,,,A,V*24
$GNRMC,103815.000,A,3356.04170,S,01851.82187,E,2.54,43.00,010921,,,A,V*2E
$GNRMC,103816.000,A,3356.04131,S,01851.82276,E,1.23,43.00,010921,,,A,V*26
$GNRMC,103817.000,A,3356.04105,S,01851.82351,E,1.22,43.00,010921,,,A,V*25
$GNRMC,103818.000,A,3356.04071,S,01851.82443,E,1.50,43.00,010921,,,A,V*29
$GNRMC,103819.000,A,3356.04076,S,01851.82524,E,2.18,112.45,010921,,,A,V*14
$GNRMC,103820.000,A,3356.04054,S,01851.82633,E,1.75,112.45,010921,,,A,V*13
$GNRMC,103821.000,A,3356.04023,S,01851.82741,E,2.50,61.03,010921,,,A,V*25
$GNRMC,103822.000,A,3356.03985,S,01851.82834,E,1.57,61.03,010921,,,A,V*2D
$GNRMC,103823.000,A,3356.03941,S,01851.82932,E,2.21,41.87,010921,,,A,V*2F
$GNRMC,103824.000,A,3356.03884,S,01851.83042,E,2.60,39.29,010921,,,A,V*21
$GNRMC,103825.000,A,3356.03862,S,01851.83150,E,2.11,80.99,010921,,,A,V*25
$GNRMC,103826.000,A,3356.03843,S,01851.83281,E,2.16,72.06,010921,,,A,V*26
$GNRMC,103827.000,A,3356.03822,S,01851.83432,E,2.45,79.34,010921,,,A,V*22
$GNRMC,103828.000,A,3356.03812,S,01851.83577,E,2.14,76.83,010921,,,A,V*29
$GNRMC,103829.000,A,3356.03797,S,01851.83738,E,2.34,66.55,010921,,,A,V*2B
$GNRMC,103830.000,A,3356.03799,S,01851.83860,E,1.98,84.02,010921,,,A,V*24
$GNRMC,103831.000,A,3356.03826,S,01851.83991,E,3.04,116.17,010921,,,A,V*18
$GNRMC,103832.000,A,3356.03868,S,01851.84114,E,2.22,118.88,010921,,,A,V*1E
$GNRMC,103833.000,A,3356.03873,S,01851.84241,E,2.06,70.14,010921,,,A,V*2A
$GNRMC,103834.000,A,3356.03850,S,01851.84359,E,1.70,70.14,010921,,,A,V*26
$GNRMC,103835.000,A,3356.03858,S,01851.84478,E,1.84,70.14,010921,,,A,V*20
$GNRMC,103836.000,A,3356.03874,S,01851.84593,E,1.27,70.14,010921,,,A,V*20
$GNRMC,103837.000,A,3356.03884,S,01851.84700,E,0.90,70.14,010921,,,A,V*2B
$GNRMC,103838.000,A,3356.03862,S,01851.84796,E,1.29,70.14,010921,,,A,V*20
$GNRMC,103839.000,A,3356.03829,S,01851.84935,E,1.75,70.14,010921,,,A,V*20
$GNRMC,103840.000,A,3356.03816,S,01851.85057,E,1.95,82.94,010921,,,A,V*25
$GNRMC,103841.000,A,3356.03802,S,01851.85202,E,2.90,79.54,010921,,,A,V*2D
$GNRMC,103842.000,A,3356.03791,S,01851.85344,E,2.68,77.50,010921,,,A,V*25
$GNRMC,103843.000,A,3356.03789,S,01851.85460,E,1.93,77.50,010921,,,A,V*2B
$GNRMC,103844.000,A,3356.03809,S,01851.85540,E,1.19,77.50,010921,,,A,V*2A
$GNRMC,103845.000,A,3356.03829,S,01851.85643,E,1.24,77.50,010921,,,A,V*27
$GNRMC,103846.000,A,3356.03829,S,01851.85727,E,1.56,77.50,010921,,,A,V*22
$GNRMC,103847.000,A,3356.03814,S,01851.85818,E,1.55,77.50,010921,,,A,V*2D
$GNRMC,103848.000,A,3356.03820,S,01851.85908,E,2.10,93.07,010921,,,A,V*2F
$GNRMC,103849.000,A,3356.03826,S,01851.85998,E,1.79,93.07,010921,,,A,V*2D
$GNRMC,103850.000,A,3356.03816,S,01851.86086,E,1.92,93.07,010921,,,A,V*26
$GNRMC,103851.000,A,3356.03792,S,01851.86153,E,1.51,93.07,010921,,,A,V*22
$GNRMC,103852.000,A,3356.03769,S,01851.86222,E,0.91,93.07,010921,,,A,V*2D
$GNRMC,103853.000,A,3356.03759,S,01851.86258,E,0.31,93.07,010921,,,A,V*28
$GNRMC,103854.000,A,3356.03745,S,01851.86312,E,1.12,93.07,010921,,,A,V*2D
$GNRMC,103855.000,A,3356.03729,S,01851.86372,E,1.11,93.07,010921,,,A,V*23
$GNRMC,103856.000,A,3356.03712,S,01851.86431,E,1.21,93.07,010921,,,A,V*2B
$GNRMC,103857.000,A,3356.03691,S,01851.86486,E,0.61,93.07,010921,,,A,V*29
$GNRMC,103858.000,A,3356.03662,S,01851.86546,E,1.34,93.07,010921,,,A,V*26
$GNRMC,103859.000,A,3356.03652,S,01851.86642,E,1.68,93.07,010921,,,A,V*2A
$GNRMC,103900.000,A,3356.03645,S,01851.86738,E,2.13,86.52,010921,,,A,V*26
$GNRMC,103901.000,A,3356.03629,S,01851.86846,E,1.71,86.52,010921,,,A,V*2C
$GNRMC,103902.000,A,3356.03619,S,01851.86939,E,1.50,86.52,010921,,,A,V*26
$GNRMC,103903.000,A,3356.03608,S,01851.87039,E,2.22,93.50,010921,,,A,V*2F
$GNRMC,103904.000,A,3356.03605,S,01851.87163,E,3.22,101.12,010921,,,A,V*16
$GNRMC,103905.000,A,3356.03593,S,01851.87287,E,1.77,101.12,010921,,,A,V*10
$GNRMC,103906.000,A,3356.03586,S,01851.87378,E,1.22,101.12,010921,,,A,V*16
$GNRMC,103907.000,A,3356.03571,S,01851.87464,E,1.62,101.12,010921,,,A,V*11
$GNRMC,103908.000,A,3356.03539,S,01851.87589,E,2.26,72.94,010921,,,A,V*28
$GNRMC,103909.000,A,3356.03502,S,01851.87678,E,1.94,72.94,010921,,,A,V*26
$GNRMC,103910.000,A,3356.03467,S,01851.87777,E,2.02,61.28,010921,,,A,V*2B
$GNRMC,103911.000,A,3356.03438,S,01851.87863,E,1.67,61.28,010921,,,A,V*2A
$GNRMC,103912.000,A,3356.03427,S,01851.87941,E,1.21,61.28,010921,,,A,V*24
$GNRMC,103913.000,A,3356.03433,S,01851.88016,E,2.07,97.02,010921,,,A,V*22
$GNRMC,103914.000,A,3356.03440,S,01851.88093,E,1.02,97.02,010921,,,A,V*2A
$GNRMC,103915.000,A,3356.03451,S,01851.88157,E,1.14,97.02,010921,,,A,V*25
$GNRMC,103916.000,A,3356.03449,S,01851.88231,E,1.57,97.02,010921,,,A,V*2B
$GNRMC,103917.000,A,3356.03442,S,01851.88310,E,1.53,97.02,010921,,,A,V*27
$GNRMC,103918.000,A,3356.03443,S,01851.88404,E,2.06,91.00,010921,,,A,V*2C
$GNRMC,103919.000,A,3356.03436,S,01851.88504,E,1.99,76.05,010921,,,A,V*27
$GNRMC,103920.000,A,3356.03433,S,01851.88592,E,1.78,76.05,010921,,,A,V*28
$GNRMC,103921.000,A,3356.03436,S,01851.88694,E,2.49,91.65,010921,,,A,V*27
$GNRMC,103922.000,A,3356.03424,S,01851.88813,E,3.03,73.39,010921,,,A,V*2C
$GNRMC,103923.000,A,3356.03413,S,01851.88896,E,1.12,73.39,010921,,,A,V*26
$GNRMC,103924.000,A,3356.03413,S,01851.88964,E,1.18,73.39,010921,,,A,V*27
$GNRMC,103925.000,A,3356.03414,S,01851.89047,E,1.16,73.39,010921,,,A,V*26
$GNRMC,103926.000,A,3356.03404,S,01851.89095,E,1.05,73.39,010921,,,A,V*29
$GNRMC,103927.000,A,3356.03400,S,01851.89159,E,1.63,73.39,010921,,,A,V*2D
$GNRMC,103928.000,A,3356.03395,S,01851.89241,E,1.90,73.39,010921,,,A,V*2F
$GNRMC,103929.000,A,3356.03380,S,01851.89328,E,2.52,78.38,010921,,,A,V*23
$GNRMC,103930.000,A,3356.03369,S,01851.89422,E,2.39,84.08,010921,,,A,V*2C
$GNRMC,103931.000,A,3356.03365,S,01851.89511,E,2.99,89.54,010921,,,A,V*2E
$GNRMC,103932.000,A,3356.03351,S,01851.89604,E,2.14,73.39,010921,,,A,V*26
$GNRMC,103933.000,A,3356.03331,S,01851.89692,E,2.32,73.32,010921,,,A,V*21
$GNRMC,103934.000,A,3356.03317,S,01851.89781,E,1.87,73.32,010921,,,A,V*2C
$GNRMC,103935.000,A,3356.03317,S,01851.89866,E,1.67,73.32,010921,,,A,V*25
$GNRMC,103936.000,A,3356.03316,S,01851.89942,E,1.69,73.32,010921,,,A,V*2E
$GNRMC,103937.000,A,3356.03316,S,01851.90027,E,2.37,98.38,010921,,,A,V*2A
$GNRMC,103938.000,A,3356.03302,S,01851.90156,E,3.90,76.85,010921,,,A,V*2D
$GNRMC,103939.000,A,3356.03291,S,01851.90272,E,1.93,76.85,010921,,,A,V*23
$GNRMC,103940.000,A,3356.03288,S,01851.90374,E,1.97,77.79,010921,,,A,V*24
$GNRMC,103941.000,A,3356.03271,S,01851.90482,E,2.45,74.61,010921,,,A,V*2B
$GNRMC,103942.000,A,3356.03255,S,01851.90607,E,2.68,75.40,010921,,,A,V*2C
$GNRMC,103943.000,A,3356.03250,S,01851.90712,E,1.70,75.40,010921,,,A,V*27
$GNRMC,103944.000,A,3356.03246,S,01851.90796,E,2.19,71.76,010921,,,A,V*26
$GNRMC,103945.000,A,3356.03229,S,01851.90898,E,2.09,76.06,010921,,,A,V*2E
$GNRMC,103946.000,A,3356.03209,S,01851.91010,E,1.75,76.06,010921,,,A,V*2E
$GNRMC,103947.000,A,3356.03207,S,01851.91102,E,2.52,113.35,010921,,,A,V*17
$GNRMC,103948.000,A,3356.03210,S,01851.91211,E,2.63,88.14,010921,,,A,V*2D
$GNRMC,103949.000,A,3356.03176,S,01851.91354,E,3.20,82.03,010921,,,A,V*25
$GNRMC,103950.000,A,3356.03146,S,01851.91460,E,2.69,80.41,010921,,,A,V*26
$GNRMC,103951.000,A,3356.03112,S,01851.91538,E,2.41,67.61,010921,,,A,V*2B
$GNRMC,103952.000,A,3356.03078,S,01851.91648,E,2.38,74.79,010921,,,A,V*24
$GNRMC,103953.000,A,3356.03057,S,01851.91750,E,3.16,80.63,010921,,,A,V*2D
$GNRMC,103954.000,A,3356.03031,S,01851.91861,E,2.99,71.58,010921,,,A,V*27
$GNRMC,103955.000,A,3356.03019,S,01851.91960,E,2.19,99.46,010921,,,A,V*2D
$GNRMC,103956.000,A,3356.03015,S,01851.92023,E,1.36,99.46,010921,,,A,V*21
$GNRMC,103957.000,A,3356.02999,S,01851.92073,E,1.26,99.46,010921,,,A,V*28
$GNRMC,103958.000,A,3356.02983,S,01851.92126,E,1.78,99.46,010921,,,A,V*26
$GNRMC,103959.000,A,3356.02959,S,01851.92195,E,2.46,65.67,010921,,,A,V*26
$GNRMC,104000.000,A,3356.02927,S,01851.92273,E,2.12,60.57,010921,,,A,V*21
$GNRMC,104001.000,A,3356.02928,S,01851.92350,E,2.66,112.10,010921,,,A,V*1B
$GNRMC,104002.000,A,3356.02946,S,01851.92452,E,2.92,98.28,010921,,,A,V*26
$GNRMC,104003.000,A,3356.02939,S,01851.92557,E,2.17,86.49,010921,,,A,V*2E
$GNRMC,104004.000,A,3356.02949,S,01851.92632,E,2.74,96.71,010921,,,A,V*21
$GNRMC,104005.000,A,3356.02949,S,01851.92747,E,2.82,86.56,010921,,,A,V*2E
$GNRMC,104006.000,A,3356.02941,S,01851.92823,E,2.05,74.39,010921,,,A,V*23
$GNRMC,104007.000,A,3356.02924,S,01851.92895,E,1.65,74.39,010921,,,A,V*29
$GNRMC,104008.000,A,3356.02905,S,01851.92965,E,1.94,74.39,010921,,,A,V*25
$GNRMC,104009.000,A,3356.02910,S,01851.93038,E,2.41,115.19,010921,,,A,V*1F
$GNRMC,104010.000,A,3356.02921,S,01851.93124,E,2.06,86.45,010921,,,A,V*28
$GNRMC,104011.000,A,3356.02907,S,01851.93195,E,2.17,71.49,010921,,,A,V*23
$GNRMC,104012.000,A,3356.02891,S,01851.93264,E,1.67,71.49,010921,,,A,V*27
$GNRMC,104013.000,A,3356.02878,S,01851.93326,E,1.37,71.49,010921,,,A,V*23
$GNRMC,104014.000,A,3356.02869,S,01851.93374,E,1.44,71.49,010921,,,A,V*27
$GNRMC,104015.000,A,3356.02864,S,01851.93424,E,1.01,71.49,010921,,,A,V*28
$GNRMC,104016.000,A,3356.02850,S,01851.93478,E,1.53,71.49,010921,,,A,V*22
$GNRMC,104017.000,A,3356.02837,S,01851.93554,E,1.68,71.49,010921,,,A,V*25
$GNRMC,104018.000,A,3356.02830,S,01851.93624,E,1.96,78.00,010921,,,A,V*2C
$GNRMC,104019.000,A,3356.02809,S,01851.93707,E,1.86,78.00,010921,,,A,V*26
$GNRMC,104020.000,A,3356.02776,S,01851.93796,E,2.65,60.10,010921,,,A,V*25
$GNRMC,104021.000,A,3356.02761,S,01851.93865,E,1.68,60.10,010921,,,A,V*2F
$GNRMC,104022.000,A,3356.02767,S,01851.93926,E,1.62,60.10,010921,,,A,V*26
$GNRMC,104023.000,A,3356.02781,S,01851.93980,E,1.25,60.10,010921,,,A,V*20
$GNRMC,104024.000,A,3356.02786,S,01851.94047,E,1.92,60.10,010921,,,A,V*29
$GNRMC,104025.000,A,3356.02783,S,01851.94157,E,2.18,93.66,010921,,,A,V*21
$GNRMC,104026.000,A,3356.02790,S,01851.94245,E,2.43,98.96,010921,,,A,V*2A
$GNRMC,104027.000,A,3356.02784,S,01851.94328,E,1.91,98.96,010921,,,A,V*28
$GNRMC,104028.000,A,3356.02759,S,01851.94402,E,1.86,98.96,010921,,,A,V*2E
$GNRMC,104029.000,A,3356.02756,S,01851.94473,E,2.23,99.61,010921,,,A,V*23
$GNRMC,104030.000,A,3356.02763,S,01851.94560,E,2.31,97.19,010921,,,A,V*2C
$GNRMC,104031.000,A,3356.02773,S,01851.94653,E,2.62,100.56,010921,,,A,V*1D
$GNRMC,104032.000,A,3356.02762,S,01851.94744,E,1.88,100.56,010921,,,A,V*1E
$GNRMC,104033.000,A,3356.02733,S,01851.94809,E,1.60,100.56,010921,,,A,V*1B
$GNRMC,104034.000,A,3356.02715,S,01851.94877,E,1.37,100.56,010921,,,A,V*13
$GNRMC,104035.000,A,3356.02725,S,01851.94934,E,1.01,100.56,010921,,,A,V*12
$GNRMC,104036.000,A,3356.02722,S,01851.94996,E,1.27,100.56,010921,,,A,V*1A
$GNRMC,104037.000,A,3356.02687,S,01851.95070,E,2.33,43.93,010921,,,A,V*2C
$GNRMC,104038.000,A,3356.02648,S,01851.95164,E,2.54,67.08,010921,,,A,V*21
$GNRMC,104039.000,A,3356.02631,S,01851.95262,E,2.03,88.57,010921,,,A,V*22
$GNRMC,104040.000,A,3356.02662,S,01851.95336,E,2.04,132.28,010921,,,A,V*15
$GNRMC,104041.000,A,3356.02689,S,01851.95384,E,0.79,132.28,010921,,,A,V*10
$GNRMC,104042.000,A,3356.02684,S,01851.95435,E,1.11,132.28,010921,,,A,V*1C
$GNRMC,104043.000,A,3356.02652,S,01851.95491,E,1.32,132.28,010921,,,A,V*19
$GNRMC,104044.000,A,3356.02632,S,01851.95573,E,1.64,132.28,010921,,,A,V*16
$GNRMC,104045.000,A,3356.02638,S,01851.95649,E,1.51,132.28,010921,,,A,V*11
$GNRMC,104046.000,A,3356.02632,S,01851.95729,E,1.91,132.28,010921,,,A,V*13
$GNRMC,104047.000,A,3356.02597,S,01851.95834,E,3.63,55.65,010921,,,A,V*2B
$GNRMC,104048.000,A,3356.02566,S,01851.95945,E,2.28,87.19,010921,,,A,V*27
$GNRMC,104049.000,A,3356.02560,S,01851.96032,E,1.88,87.19,010921,,,A,V*23
$GNRMC,104050.000,A,3356.02539,S,01851.96140,E,2.32,69.22,010921,,,A,V*29
$GNRMC,104051.000,A,3356.02526,S,01851.96253,E,2.84,91.72,010921,,,A,V*28
$GNRMC,104052.000,A,3356.02521,S,01851.96364,E,2.37,84.30,010921,,,A,V*23
$GNRMC,104053.000,A,3356.02497,S,01851.96480,E,3.45,64.24,010921,,,A,V*2C
$GNRMC,104054.000,A,3356.02458,S,01851.96596,E,2.77,61.32,010921,,,A,V*2C
$GNRMC,104055.000,A,3356.02439,S,01851.96687,E,2.06,79.66,010921,,,A,V*27
$GNRMC,104056.000,A,3356.02426,S,01851.96803,E,2.68,83.87,010921,,,A,V*2A
$GNRMC,104057.000,A,3356.02413,S,01851.96902,E,2.17,73.55,010921,,,A,V*25
$GNRMC,104058.000,A,3356.02401,S,01851.96971,E,1.51,73.55,010921,,,A,V*2C
$GNRMC,104059.000,A,3356.02384,S,01851.97047,E,1.86,73.55,010921,,,A,V*20
$GNRMC,104100.000,A,3356.02380,S,01851.97136,E,2.83,88.01,010921,,,A,V*2D
$GNRMC,104101.000,A,3356.02380,S,01851.97241,E,2.34,93.00,010921,,,A,V*28
$GNRMC,104102.000,A,3356.02369,S,01851.97346,E,2.81,77.11,010921,,,A,V*2E
$GNRMC,104103.000,A,3356.02342,S,01851.97462,E,2.35,70.98,010921,,,A,V*2E
$GNRMC,104104.000,A,3356.02330,S,01851.97553,E,1.90,70.98,010921,,,A,V*23
$GNRMC,104105.000,A,3356.02317,S,01851.97660,E,2.43,78.64,010921,,,A,V*22
$GNRMC,104106.000,A,3356.02311,S,01851.97767,E,2.64,80.51,010921,,,A,V*25
$GNRMC,104107.000,A,3356.02300,S,01851.97878,E,2.73,82.01,010921,,,A,V*24
$GNRMC,104108.000,A,3356.02296,S,01851.97963,E,1.64,82.01,010921,,,A,V*2B
$GNRMC,104109.000,A,3356.02300,S,01851.98046,E,2.52,90.12,010921,,,A,V*22
$GNRMC,104110.000,A,3356.02310,S,01851.98134,E,2.36,91.23,010921,,,A,V*2E
$GNRMC,104111.000,A,3356.02308,S,01851.98213,E,2.38,72.50,010921,,,A,V*27
$GNRMC,104112.000,A,3356.02301,S,01851.98296,E,2.01,79.52,010921,,,A,V*23
$GNRMC,104113.000,A,3356.02310,S,01851.98376,E,2.20,101.16,010921,,,A,V*10
$GNRMC,104114.000,A,3356.02327,S,01851.98461,E,2.20,101.25,010921,,,A,V*12
$GNRMC,104115.000,A,3356.02347,S,01851.98547,E,1.95,110.28,010921,,,A,V*10
$GNRMC,104116.000,A,3356.02360,S,01851.98615,E,1.57,110.28,010921,,,A,V*1C
$GNRMC,104117.000,A,3356.02384,S,01851.98665,E,1.22,110.28,010921,,,A,V*12
$GNRMC,104118.000,A,3356.02384,S,01851.98687,E,0.00,110.28,010921,,,A,V*10
$GNRMC,104119.000,A,3356.02384,S,01851.98708,E,0.00,110.28,010921,,,A,V*17
$GNRMC,104120.000,A,3356.02383,S,01851.98735,E,0.00,110.28,010921,,,A,V*14
$GNRMC,104121.000,A,3356.02396,S,01851.98809,E,1.65,110.28,010921,,,A,V*13
$GNRMC,104122.000,A,3356.02404,S,01851.98887,E,1.61,110.28,010921,,,A,V*1E
$GNRMC,104123.000,A,3356.02409,S,01851.98967,E,1.00,110.28,010921,,,A,V*1A
$GNRMC,104124.000,A,3356.02402,S,01851.99032,E,0.67,110.28,010921,,,A,V*1E
$GNRMC,104125.000,A,3356.02412,S,01851.99110,E,1.75,110.28,010921,,,A,V*1D
$GNRMC,104126.000,A,3356.02429,S,01851.99188,E,1.47,110.28,010921,,,A,V*16
$GNRMC,104127.000,A,3356.02423,S,01851.99263,E,2.19,70.30,010921,,,A,V*2D
$GNRMC,104128.000,A,3356.02400,S,01851.99360,E,2.17,81.20,010921,,,A,V*20
$GNRMC,104129.000,A,3356.02391,S,01851.99432,E,1.19,81.20,010921,,,A,V*23
$GNRMC,104130.000,A,3356.02384,S,01851.99525,E,1.56,81.20,010921,,,A,V*23
$GNRMC,104131.000,A,3356.02391,S,01851.99615,E,1.87,81.20,010921,,,A,V*2A
$GNRMC,104132.000,A,3356.02367,S,01851.99720,E,2.26,53.37,010921,,,A,V*26
$GNRMC,104133.000,A,3356.02329,S,01851.99825,E,2.63,71.15,010921,,,A,V*26
$GNRMC,104134.000,A,3356.02314,S,01851.99938,E,2.13,100.01,010921,,,A,V*17
$GNRMC,104135.000,A,3356.02313,S,01852.00042,E,2.31,92.95,010921,,,A,V*21
$GNRMC,104136.000,A,3356.02312,S,01852.00136,E,2.00,94.26,010921,,,A,V*2D
$GNRMC,104137.000,A,3356.02310,S,01852.00241,E,1.94,94.26,010921,,,A,V*23
$GNRMC,104138.000,A,3356.02305,S,01852.00341,E,2.11,89.51,010921,,,A,V*2B
$GNRMC,104139.000,A,3356.02301,S,01852.00435,E,2.25,89.45,010921,,,A,V*28
$GNRMC,104140.000,A,3356.02289,S,01852.00532,E,2.24,86.73,010921,,,A,V*2A
$GNRMC,104141.000,A,3356.02296,S,01852.00622,E,1.87,86.73,010921,,,A,V*2D
$GNRMC,104142.000,A,3356.02301,S,01852.00692,E,1.16,86.73,010921,,,A,V*22
$GNRMC,104143.000,A,3356.02280,S,01852.00763,E,2.29,58.07,010921,,,A,V*2B
$GNRMC,104144.000,A,3356.02257,S,01852.00848,E,1.95,76.82,010921,,,A,V*25
$GNRMC,104145.000,A,3356.02242,S,01852.00930,E,1.38,76.82,010921,,,A,V*29
$GNRMC,104146.000,A,3356.02222,S,01852.01014,E,1.78,76.82,010921,,,A,V*26
$GNRMC,104147.000,A,3356.02198,S,01852.01103,E,1.66,76.82,010921,,,A,V*2D
$GNRMC,104148.000,A,3356.02181,S,01852.01184,E,2.03,58.86,010921,,,A,V*2D
$GNRMC,104149.000,A,3356.02168,S,01852.01261,E,2.22,84.32,010921,,,A,V*2E
$GNRMC,104150.000,A,3356.02154,S,01852.01372,E,2.18,95.26,010921,,,A,V*26
$GNRMC,104151.000,A,3356.02146,S,01852.01450,E,1.10,95.26,010921,,,A,V*28
$GNRMC,104152.000,A,3356.02141,S,01852.01504,E,1.44,95.26,010921,,,A,V*2D
$GNRMC,104153.000,A,3356.02136,S,01852.01586,E,1.50,95.26,010921,,,A,V*23
$GNRMC,104154.000,A,3356.02131,S,01852.01667,E,1.85,95.26,010921,,,A,V*27
$GNRMC,104155.000,A,3356.02139,S,01852.01754,E,2.50,109.55,010921,,,A,V*14
$GNRMC,104156.000,A,3356.02137,S,01852.01870,E,3.58,83.08,010921,,,A,V*22
$GNRMC,104157.000,A,3356.02114,S,01852.01993,E,2.08,72.49,010921,,,A,V*21
$GNRMC,104158.000,A,3356.02109,S,01852.02062,E,1.35,72.49,010921,,,A,V*2B
$GNRMC,104159.000,A,3356.02096,S,01852.02148,E,1.79,72.49,010921,,,A,V*2C
$GNRMC,104200.000,A,3356.02072,S,01852.02237,E,1.67,72.49,010921,,,A,V*2D
$GNRMC,104201.000,A,3356.02060,S,01852.02318,E,1.20,72.49,010921,,,A,V*20
$GNRMC,104202.000,A,3356.02047,S,01852.02398,E,1.39,72.49,010921,,,A,V*26
$GNRMC,104203.000,A,3356.02041,S,01852.02422,E,0.00,72.49,010921,,,A,V*2C
$GNRMC,104204.000,A,3356.02039,S,01852.02447,E,0.00,72.49,010921,,,A,V*27
$GNRMC,104205.000,A,3356.02032,S,01852.02463,E,0.00,72.49,010921,,,A,V*2B
$GNRMC,104206.000,A,3356.02027,S,01852.02514,E,1.19,72.49,010921,,,A,V*24
$GNRMC,104207.000,A,3356.01989,S,01852.02598,E,1.90,72.49,010921,,,A,V*2E
$GNRMC,104208.000,A,3356.01972,S,01852.02670,E,1.52,72.49,010921,,,A,V*2E
$GNRMC,104209.000,A,3356.01958,S,01852.02755,E,1.40,72.49,010921,,,A,V*22
$GNRMC,104210.000,A,3356.01972,S,01852.02826,E,1.63,72.49,010921,,,A,V*28
$GNRMC,104211.000,A,3356.01980,S,01852.02922,E,2.15,88.38,010921,,,A,V*20
$GNRMC,104212.000,A,3356.01968,S,01852.03019,E,2.16,77.40,010921,,,A,V*29
$GNRMC,104213.000,A,3356.01950,S,01852.03138,E,2.87,75.76,010921,,,A,V*2E
$GNRMC,104214.000,A,3356.01920,S,01852.03263,E,2.44,81.09,010921,,,A,V*2F
$GNRMC,104215.000,A,3356.01878,S,01852.03430,E,3.83,72.54,010921,,,A,V*2C
$GNRMC,104216.000,A,3356.01844,S,01852.03580,E,2.59,83.34,010921,,,A,V*24
$GNRMC,104217.000,A,3356.01824,S,01852.03716,E,2.35,104.07,010921,,,A,V*1A
$GNRMC,104218.000,A,3356.01834,S,01852.03830,E,2.80,115.49,010921,,,A,V*1B
$GNRMC,104219.000,A,3356.01844,S,01852.03969,E,3.15,99.52,010921,,,A,V*22
$GNRMC,104220.000,A,3356.01824,S,01852.04084,E,2.66,77.38,010921,,,A,V*2A
$GNRMC,104221.000,A,3356.01801,S,01852.04191,E,2.08,83.68,010921,,,A,V*2F
$GNRMC,104222.000,A,3356.01775,S,01852.04284,E,2.22,68.75,010921,,,A,V*26
$GNRMC,104223.000,A,3356.01746,S,01852.04387,E,2.20,75.56,010921,,,A,V*2A
$GNRMC,104224.000,A,3356.01747,S,01852.04489,E,2.39,98.05,010921,,,A,V*28
$GNRMC,104225.000,A,3356.01740,S,01852.04589,E,2.23,82.31,010921,,,A,V*28
$GNRMC,104226.000,A,3356.01724,S,01852.04697,E,2.24,86.40,010921,,,A,V*20
$GNRMC,104227.000,A,3356.01707,S,01852.04786,E,2.41,79.86,010921,,,A,V*28
$GNRMC,104228.000,A,3356.01698,S,01852.04878,E,2.06,95.44,010921,,,A,V*21
$GNRMC,104229.000,A,3356.01687,S,01852.04955,E,1.54,95.44,010921,,,A,V*24
$GNRMC,104230.000,A,3356.01673,S,01852.05021,E,1.43,95.44,010921,,,A,V*2A
$GNRMC,104231.000,A,3356.01651,S,01852.05105,E,1.90,95.44,010921,,,A,V*22
$GNRMC,104232.000,A,3356.01627,S,01852.05227,E,2.94,78.72,010921,,,A,V*22
$GNRMC,104233.000,A,3356.01613,S,01852.05329,E,0.93,78.72,010921,,,A,V*2E
$GNRMC,104234.000,A,3356.01590,S,01852.05391,E,1.52,78.72,010921,,,A,V*2E
$GNRMC,104235.000,A,3356.01572,S,01852.05476,E,1.97,89.71,010921,,,A,V*29
$GNRMC,104236.000,A,3356.01574,S,01852.05534,E,1.77,89.71,010921,,,A,V*25
$GNRMC,104237.000,A,3356.01555,S,01852.05629,E,2.29,73.90,010921,,,A,V*2A
$GNRMC,104238.000,A,3356.01546,S,01852.05721,E,2.51,88.53,010921,,,A,V*2A
$GNRMC,104239.000,A,3356.01553,S,01852.05810,E,2.35,108.78,010921,,,A,V*10
$GNRMC,104240.000,A,3356.01552,S,01852.05876,E,0.62,108.78,010921,,,A,V*1F
$GNRMC,104241.000,A,3356.01539,S,01852.05921,E,1.25,108.78,010921,,,A,V*12
$GNRMC,104242.000,A,3356.01527,S,01852.05978,E,0.76,108.78,010921,,,A,V*15
$GNRMC,104243.000,A,3356.01525,S,01852.06053,E,2.02,90.70,010921,,,A,V*2C
$GNRMC,104244.000,A,3356.01512,S,01852.06132,E,1.17,90.70,010921,,,A,V*2E
$GNRMC,104245.000,A,3356.01498,S,01852.06204,E,1.71,90.70,010921,,,A,V*2A
$GNRMC,104246.000,A,3356.01470,S,01852.06301,E,2.43,75.73,010921,,,A,V*21
$GNRMC,104247.000,A,3356.01436,S,01852.06407,E,1.96,76.49,010921,,,A,V*22
$GNRMC,104248.000,A,3356.01401,S,01852.06478,E,1.99,51.36,010921,,,A,V*23
$GNRMC,104249.000,A,3356.01345,S,01852.06555,E,2.60,41.93,010921,,,A,V*20
$GNRMC,104250.000,A,3356.01278,S,01852.06620,E,2.02,33.45,010921,,,A,V*2C
$GNRMC,104251.000,A,3356.01223,S,01852.06661,E,1.67,33.45,010921,,,A,V*26
$GNRMC,104252.000,A,3356.01166,S,01852.06701,E,1.67,33.45,010921,,,A,V*20
$GNRMC,104253.000,A,3356.01122,S,01852.06713,E,0.97,33.45,010921,,,A,V*2C
$GNRMC,104254.000,A,3356.01089,S,01852.06718,E,1.35,33.45,010921,,,A,V*29
$GNRMC,104255.000,A,3356.01062,S,01852.06716,E,1.01,33.45,010921,,,A,V*24
$GNRMC,104256.000,A,3356.01004,S,01852.06744,E,2.99,23.24,010921,,,A,V*24
$GNRMC,104257.000,A,3356.00937,S,01852.06792,E,1.92,23.24,010921,,,A,V*2E
$GNRMC,104258.000,A,3356.00900,S,01852.06821,E,0.68,23.24,010921,,,A,V*26
$GNRMC,104259.000,A,3356.00863,S,01852.06833,E,1.27,23.24,010921,,,A,V*2A
$GNRMC,104300.000,A,3356.00853,S,01852.06852,E,0.00,23.24,010921,,,A,V*27
$GNRMC,104301.000,A,3356.00844,S,01852.06871,E,0.00,23.24,010921,,,A,V*21
$GNRMC,104302.000,A,3356.00840,S,01852.06887,E,0.00,23.24,010921,,,A,V*2F
$GNRMC,104303.000,A,3356.00837,S,01852.06904,E,0.00,23.24,010921,,,A,V*24
$GNRMC,104304.000,A,3356.00847,S,01852.06922,E,0.00,23.24,010921,,,A,V*20

//b

$GNRMC,104307.000,A,3356.00856,S,01852.06961,E,0.00,23.24,010921,,,A,V*24
$GNRMC,104308.000,A,3356.00857,S,01852.06969,E,0.00,23.24,010921,,,A,V*22
$GNRMC,104309.000,A,3356.00853,S,01852.06973,E,0.00,23.24,010921,,,A,V*2C
$GNRMC,104310.000,A,3356.00866,S,01852.06956,E,1.29,23.24,010921,,,A,V*2F
$GNRMC,104311.000,A,3356.00814,S,01852.06965,E,2.49,4.72,010921,,,A,V*18
$GNRMC,104312.000,A,3356.00774,S,01852.06984,E,0.81,4.72,010921,,,A,V*1B
$GNRMC,104313.000,A,3356.00760,S,01852.06989,E,0.79,4.72,010921,,,A,V*15
$GNRMC,104314.000,A,3356.00753,S,01852.06998,E,0.00,4.72,010921,,,A,V*1C
$GNRMC,104315.000,A,3356.00748,S,01852.07010,E,0.00,4.72,010921,,,A,V*1F
$GNRMC,104316.000,A,3356.00753,S,01852.07014,E,0.00,4.72,010921,,,A,V*12
$GNRMC,104317.000,A,3356.00755,S,01852.07017,E,0.00,4.72,010921,,,A,V*16
$GNRMC,104318.000,A,3356.00755,S,01852.07023,E,0.00,4.72,010921,,,A,V*1E
$GNRMC,104319.000,A,3356.00761,S,01852.07029,E,0.00,4.72,010921,,,A,V*12
$GNRMC,104320.000,A,3356.00723,S,01852.07033,E,1.90,4.72,010921,,,A,V*1D
$GNRMC,104321.000,A,3356.00618,S,01852.07058,E,4.75,3.61,010921,,,A,V*13
$GNRMC,104322.000,A,3356.00532,S,01852.07099,E,2.36,32.97,010921,,,A,V*2C
$GNRMC,104323.000,A,3356.00482,S,01852.07137,E,2.05,22.50,010921,,,A,V*28
$GNRMC,104324.000,A,3356.00426,S,01852.07179,E,2.61,24.21,010921,,,A,V*29
$GNRMC,104325.000,A,3356.00359,S,01852.07209,E,2.54,12.64,010921,,,A,V*21
$GNRMC,104326.000,A,3356.00291,S,01852.07233,E,2.55,16.56,010921,,,A,V*2A
$GNRMC,104327.000,A,3356.00226,S,01852.07250,E,2.60,11.57,010921,,,A,V*22
$GNRMC,104328.000,A,3356.00158,S,01852.07268,E,2.68,14.94,010921,,,A,V*2E
$GNRMC,104329.000,A,3356.00099,S,01852.07270,E,1.84,14.94,010921,,,A,V*2B
$GNRMC,104330.000,A,3356.00026,S,01852.07273,E,3.16,4.39,010921,,,A,V*1B
$GNRMC,104331.000,A,3355.99947,S,01852.07264,E,2.95,347.78,010921,,,A,V*1A
$GNRMC,104332.000,A,3355.99876,S,01852.07285,E,2.88,31.34,010921,,,A,V*23
$GNRMC,104333.000,A,3355.99803,S,01852.07296,E,3.21,352.51,010921,,,A,V*15
$GNRMC,104334.000,A,3355.99714,S,01852.07305,E,3.38,2.19,010921,,,A,V*12
$GNRMC,104335.000,A,3355.99648,S,01852.07297,E,2.69,346.77,010921,,,A,V*1F
$GNRMC,104336.000,A,3355.99587,S,01852.07291,E,3.55,341.32,010921,,,A,V*12
$GNRMC,104337.000,A,3355.99494,S,01852.07272,E,3.81,354.43,010921,,,A,V*16
$GNRMC,104338.000,A,3355.99410,S,01852.07299,E,3.53,33.95,010921,,,A,V*26
$GNRMC,104339.000,A,3355.99340,S,01852.07329,E,2.42,8.89,010921,,,A,V*1B
$GNRMC,104340.000,A,3355.99267,S,01852.07327,E,2.88,341.62,010921,,,A,V*12
$GNRMC,104341.000,A,3355.99184,S,01852.07310,E,3.22,354.86,010921,,,A,V*16
$GNRMC,104342.000,A,3355.99132,S,01852.07299,E,0.95,354.86,010921,,,A,V*17
$GNRMC,104343.000,A,3355.99096,S,01852.07277,E,2.16,315.04,010921,,,A,V*1F
$GNRMC,104344.000,A,3355.99046,S,01852.07250,E,2.14,331.34,010921,,,A,V*17
$GNRMC,104345.000,A,3355.98970,S,01852.07261,E,3.63,12.50,010921,,,A,V*28
$GNRMC,104346.000,A,3355.98884,S,01852.07275,E,2.82,5.09,010921,,,A,V*10
$GNRMC,104347.000,A,3355.98826,S,01852.07246,E,2.19,319.62,010921,,,A,V*18
$GNRMC,104348.000,A,3355.98757,S,01852.07217,E,2.67,342.51,010921,,,A,V*1D
$GNRMC,104349.000,A,3355.98697,S,01852.07205,E,2.37,342.47,010921,,,A,V*10
$GNRMC,104350.000,A,3355.98705,S,01852.07212,E,0.00,342.47,010921,,,A,V*12
$GNRMC,104351.000,A,3355.98709,S,01852.07219,E,0.00,342.47,010921,,,A,V*14
$GNRMC,104352.000,A,3355.98636,S,01852.07225,E,3.18,8.28,010921,,,A,V*1B
$GNRMC,104353.000,A,3355.98562,S,01852.07225,E,2.64,6.37,010921,,,A,V*12
$GNRMC,104354.000,A,3355.98486,S,01852.07219,E,2.84,357.52,010921,,,A,V*1B
$GNRMC,104355.000,A,3355.98415,S,01852.07199,E,2.60,334.69,010921,,,A,V*1C
$GNRMC,104356.000,A,3355.98348,S,01852.07173,E,2.40,348.82,010921,,,A,V*18
$GNRMC,104357.000,A,3355.98277,S,01852.07168,E,2.67,4.76,010921,,,A,V*1B
$GNRMC,104358.000,A,3355.98207,S,01852.07159,E,2.36,352.79,010921,,,A,V*1A
$GNRMC,104359.000,A,3355.98150,S,01852.07129,E,1.85,352.79,010921,,,A,V*16
$GNRMC,104400.000,A,3355.98087,S,01852.07085,E,2.96,330.95,010921,,,A,V*16
$GNRMC,104401.000,A,3355.98003,S,01852.07080,E,3.52,20.49,010921,,,A,V*24
$GNRMC,104402.000,A,3355.97910,S,01852.07079,E,3.03,350.82,010921,,,A,V*12
$GNRMC,104403.000,A,3355.97818,S,01852.07054,E,3.47,336.84,010921,,,A,V*13
$GNRMC,104404.000,A,3355.97750,S,01852.07035,E,1.69,336.84,010921,,,A,V*1E
$GNRMC,104405.000,A,3355.97689,S,01852.07006,E,2.60,336.62,010921,,,A,V*18
$GNRMC,104406.000,A,3355.97601,S,01852.07022,E,3.54,11.37,010921,,,A,V*2D
$GNRMC,104407.000,A,3355.97503,S,01852.07040,E,3.25,4.33,010921,,,A,V*1F
$GNRMC,104408.000,A,3355.97413,S,01852.07066,E,3.16,22.23,010921,,,A,V*21
$GNRMC,104409.000,A,3355.97312,S,01852.07087,E,3.27,3.85,010921,,,A,V*14
$GNRMC,104410.000,A,3355.97241,S,01852.07090,E,1.72,3.85,010921,,,A,V*1F
$GNRMC,104411.000,A,3355.97192,S,01852.07065,E,1.67,3.85,010921,,,A,V*1D
$GNRMC,104412.000,A,3355.97113,S,01852.07070,E,3.25,359.05,010921,,,A,V*13
$GNRMC,104413.000,A,3355.97030,S,01852.07071,E,2.57,342.22,010921,,,A,V*18
$GNRMC,104414.000,A,3355.96961,S,01852.07042,E,2.35,335.90,010921,,,A,V*1E
$GNRMC,104415.000,A,3355.96894,S,01852.07025,E,2.16,338.52,010921,,,A,V*17
$GNRMC,104416.000,A,3355.96830,S,01852.07022,E,1.98,358.42,010921,,,A,V*1F
$GNRMC,104417.000,A,3355.96752,S,01852.07025,E,3.00,357.80,010921,,,A,V*10
$GNRMC,104418.000,A,3355.96644,S,01852.07026,E,3.69,355.32,010921,,,A,V*1E
$GNRMC,104419.000,A,3355.96531,S,01852.07025,E,3.90,357.03,010921,,,A,V*1B
$GNRMC,104420.000,A,3355.96437,S,01852.07033,E,2.56,359.19,010921,,,A,V*1F
$GNRMC,104421.000,A,3355.96362,S,01852.07035,E,2.47,345.92,010921,,,A,V*11
$GNRMC,104422.000,A,3355.96282,S,01852.07038,E,2.67,357.05,010921,,,A,V*1F
$GNRMC,104423.000,A,3355.96202,S,01852.07047,E,2.15,348.60,010921,,,A,V*16
$GNRMC,104424.000,A,3355.96124,S,01852.07035,E,2.95,326.22,010921,,,A,V*15
$GNRMC,104425.000,A,3355.96056,S,01852.07014,E,1.94,326.22,010921,,,A,V*11
$GNRMC,104426.000,A,3355.95989,S,01852.06997,E,2.00,339.36,010921,,,A,V*1C
$GNRMC,104427.000,A,3355.95916,S,01852.06998,E,1.90,339.36,010921,,,A,V*1E
$GNRMC,104428.000,A,3355.95836,S,01852.06974,E,3.27,346.26,010921,,,A,V*17
$GNRMC,104429.000,A,3355.95729,S,01852.06950,E,3.60,334.80,010921,,,A,V*1B
$GNRMC,104430.000,A,3355.95645,S,01852.06935,E,1.81,334.80,010921,,,A,V*16
$GNRMC,104431.000,A,3355.95590,S,01852.06897,E,1.94,334.80,010921,,,A,V*11
$GNRMC,104432.000,A,3355.95505,S,01852.06884,E,3.09,347.72,010921,,,A,V*13
$GNRMC,104433.000,A,3355.95405,S,01852.06891,E,3.12,352.88,010921,,,A,V*1C
$GNRMC,104434.000,A,3355.95319,S,01852.06897,E,2.48,358.70,010921,,,A,V*14
$GNRMC,104435.000,A,3355.95244,S,01852.06919,E,2.15,5.15,010921,,,A,V*1B
$GNRMC,104436.000,A,3355.95160,S,01852.06953,E,2.43,1.75,010921,,,A,V*12
$GNRMC,104437.000,A,3355.95087,S,01852.06943,E,2.41,344.66,010921,,,A,V*18
$GNRMC,104438.000,A,3355.95012,S,01852.06946,E,2.38,358.35,010921,,,A,V*1B
$GNRMC,104439.000,A,3355.94925,S,01852.06975,E,2.78,4.92,010921,,,A,V*15
$GNRMC,104440.000,A,3355.94874,S,01852.06919,E,1.37,4.92,010921,,,A,V*1C
$GNRMC,104441.000,A,3355.94816,S,01852.06896,E,2.38,326.50,010921,,,A,V*1E
$GNRMC,104442.000,A,3355.94731,S,01852.06896,E,2.47,339.83,010921,,,A,V*1F
$GNRMC,104443.000,A,3355.94649,S,01852.06885,E,2.69,351.26,010921,,,A,V*1F
$GNRMC,104444.000,A,3355.94577,S,01852.06885,E,1.63,351.26,010921,,,A,V*1F
$GNRMC,104445.000,A,3355.94517,S,01852.06870,E,1.88,351.26,010921,,,A,V*17
$GNRMC,104446.000,A,3355.94442,S,01852.06869,E,2.44,347.63,010921,,,A,V*18
$GNRMC,104447.000,A,3355.94365,S,01852.06855,E,2.17,346.93,010921,,,A,V*1C
$GNRMC,104448.000,A,3355.94285,S,01852.06848,E,2.21,353.58,010921,,,A,V*16
$GNRMC,104449.000,A,3355.94197,S,01852.06862,E,3.02,16.66,010921,,,A,V*20
$GNRMC,104450.000,A,3355.94098,S,01852.06868,E,3.03,0.97,010921,,,A,V*14
$GNRMC,104451.000,A,3355.94015,S,01852.06861,E,2.19,349.73,010921,,,A,V*17
$GNRMC,104452.000,A,3355.93930,S,01852.06864,E,3.02,359.21,010921,,,A,V*15
$GNRMC,104453.000,A,3355.93833,S,01852.06874,E,3.36,7.72,010921,,,A,V*1E
$GNRMC,104454.000,A,3355.93753,S,01852.06869,E,2.46,2.50,010921,,,A,V*1F
$GNRMC,104455.000,A,3355.93660,S,01852.06843,E,3.95,341.28,010921,,,A,V*13
$GNRMC,104456.000,A,3355.93559,S,01852.06811,E,3.24,344.93,010921,,,A,V*11
$GNRMC,104457.000,A,3355.93475,S,01852.06781,E,2.79,343.80,010921,,,A,V*15
$GNRMC,104458.000,A,3355.93391,S,01852.06742,E,3.17,340.07,010921,,,A,V*1D
$GNRMC,104459.000,A,3355.93306,S,01852.06721,E,2.78,349.31,010921,,,A,V*13
$GNRMC,104500.000,A,3355.93229,S,01852.06687,E,3.07,342.47,010921,,,A,V*1C
$GNRMC,104501.000,A,3355.93152,S,01852.06670,E,2.36,352.77,010921,,,A,V*1B
$GNRMC,104502.000,A,3355.93077,S,01852.06688,E,2.82,15.71,010921,,,A,V*20
$GNRMC,104503.000,A,3355.93014,S,01852.06716,E,2.11,27.27,010921,,,A,V*2A
$GNRMC,104504.000,A,3355.92951,S,01852.06730,E,2.32,352.66,010921,,,A,V*15
$GNRMC,104505.000,A,3355.92880,S,01852.06722,E,2.23,353.77,010921,,,A,V*1B
$GNRMC,104506.000,A,3355.92817,S,01852.06729,E,2.08,355.44,010921,,,A,V*12
$GNRMC,104507.000,A,3355.92769,S,01852.06720,E,1.89,355.44,010921,,,A,V*16
$GNRMC,104508.000,A,3355.92712,S,01852.06721,E,2.06,349.93,010921,,,A,V*17
$GNRMC,104509.000,A,3355.92624,S,01852.06727,E,3.06,354.05,010921,,,A,V*16
$GNRMC,104510.000,A,3355.92537,S,01852.06705,E,2.84,353.58,010921,,,A,V*1B
$GNRMC,104511.000,A,3355.92465,S,01852.06699,E,2.02,356.05,010921,,,A,V*1B
$GNRMC,104512.000,A,3355.92404,S,01852.06690,E,1.94,356.05,010921,,,A,V*1A
$GNRMC,104513.000,A,3355.92337,S,01852.06681,E,2.65,344.31,010921,,,A,V*15
$GNRMC,104514.000,A,3355.92266,S,01852.06684,E,2.35,357.83,010921,,,A,V*1C
$GNRMC,104515.000,A,3355.92211,S,01852.06672,E,1.77,357.83,010921,,,A,V*11
$GNRMC,104516.000,A,3355.92163,S,01852.06648,E,1.72,357.83,010921,,,A,V*18
$GNRMC,104517.000,A,3355.92094,S,01852.06640,E,2.70,358.82,010921,,,A,V*17
$GNRMC,104518.000,A,3355.92013,S,01852.06625,E,3.13,346.64,010921,,,A,V*17
$GNRMC,104519.000,A,3355.91948,S,01852.06612,E,1.73,346.64,010921,,,A,V*12
$GNRMC,104520.000,A,3355.91887,S,01852.06609,E,2.61,353.88,010921,,,A,V*16
$GNRMC,104521.000,A,3355.91817,S,01852.06588,E,2.47,341.22,010921,,,A,V*13
$GNRMC,104522.000,A,3355.91751,S,01852.06560,E,2.54,339.67,010921,,,A,V*17
$GNRMC,104523.000,A,3355.91685,S,01852.06546,E,2.37,353.13,010921,,,A,V*10
$GNRMC,104524.000,A,3355.91623,S,01852.06532,E,2.15,350.88,010921,,,A,V*19
$GNRMC,104525.000,A,3355.91553,S,01852.06492,E,2.91,328.70,010921,,,A,V*13
$GNRMC,104526.000,A,3355.91479,S,01852.06455,E,2.32,346.28,010921,,,A,V*1E
$GNRMC,104527.000,A,3355.91405,S,01852.06428,E,2.64,340.78,010921,,,A,V*1E
$GNRMC,104528.000,A,3355.91338,S,01852.06402,E,1.78,340.78,010921,,,A,V*1E
$GNRMC,104529.000,A,3355.91262,S,01852.06369,E,3.19,333.79,010921,,,A,V*1B
$GNRMC,104530.000,A,3355.91177,S,01852.06318,E,2.90,332.59,010921,,,A,V*11
$GNRMC,104531.000,A,3355.91093,S,01852.06286,E,2.64,341.71,010921,,,A,V*18
$GNRMC,104532.000,A,3355.91021,S,01852.06262,E,2.16,349.04,010921,,,A,V*17
$GNRMC,104533.000,A,3355.90955,S,01852.06244,E,2.12,345.79,010921,,,A,V*1B
$GNRMC,104534.000,A,3355.90884,S,01852.06200,E,2.87,332.17,010921,,,A,V*15
$GNRMC,104535.000,A,3355.90810,S,01852.06166,E,2.60,334.03,010921,,,A,V*10
$GNRMC,104536.000,A,3355.90732,S,01852.06127,E,2.90,346.65,010921,,,A,V*13
$GNRMC,104537.000,A,3355.90660,S,01852.06114,E,2.36,335.93,010921,,,A,V*15
$GNRMC,104538.000,A,3355.90593,S,01852.06089,E,2.46,339.83,010921,,,A,V*1A
$GNRMC,104539.000,A,3355.90528,S,01852.06059,E,2.45,334.56,010921,,,A,V*10
$GNRMC,104540.000,A,3355.90456,S,01852.06023,E,2.83,331.59,010921,,,A,V*1B
$GNRMC,104541.000,A,3355.90391,S,01852.06020,E,1.78,331.59,010921,,,A,V*12
$GNRMC,104542.000,A,3355.90325,S,01852.06010,E,2.55,351.69,010921,,,A,V*14
$GNRMC,104543.000,A,3355.90258,S,01852.06000,E,2.14,341.72,010921,,,A,V*11
$GNRMC,104544.000,A,3355.90181,S,01852.05980,E,3.23,340.35,010921,,,A,V*14
$GNRMC,104545.000,A,3355.90111,S,01852.05945,E,2.00,333.41,010921,,,A,V*12
$GNRMC,104546.000,A,3355.90042,S,01852.05920,E,2.50,345.39,010921,,,A,V*1E
$GNRMC,104547.000,A,3355.89981,S,01852.05884,E,1.93,345.39,010921,,,A,V*12
$GNRMC,104548.000,A,3355.89920,S,01852.05846,E,2.31,341.02,010921,,,A,V*1F
$GNRMC,104549.000,A,3355.89846,S,01852.05835,E,2.48,351.45,010921,,,A,V*17
$GNRMC,104550.000,A,3355.89755,S,01852.05818,E,3.26,339.96,010921,,,A,V*14
$GNRMC,104551.000,A,3355.89664,S,01852.05795,E,2.83,344.85,010921,,,A,V*1A
$GNRMC,104552.000,A,3355.89588,S,01852.05784,E,2.29,336.57,010921,,,A,V*12
$GNRMC,104553.000,A,3355.89511,S,01852.05774,E,2.93,330.81,010921,,,A,V*10
$GNRMC,104554.000,A,3355.89422,S,01852.05757,E,3.03,348.06,010921,,,A,V*1F
$GNRMC,104555.000,A,3355.89355,S,01852.05745,E,1.68,348.06,010921,,,A,V*15
$GNRMC,104556.000,A,3355.89284,S,01852.05749,E,2.60,352.52,010921,,,A,V*16
$GNRMC,104557.000,A,3355.89212,S,01852.05755,E,2.38,338.68,010921,,,A,V*1D
$GNRMC,104558.000,A,3355.89146,S,01852.05754,E,1.95,325.15,010921,,,A,V*13
$GNRMC,104559.000,A,3355.89077,S,01852.05745,E,2.60,356.16,010921,,,A,V*1F
$GNRMC,104600.000,A,3355.88996,S,01852.05768,E,2.26,353.17,010921,,,A,V*1E
$GNRMC,104601.000,A,3355.88921,S,01852.05773,E,2.45,354.29,010921,,,A,V*16
$GNRMC,104602.000,A,3355.88842,S,01852.05780,E,2.99,339.65,010921,,,A,V*1F
$GNRMC,104603.000,A,3355.88757,S,01852.05771,E,2.82,352.83,010921,,,A,V*14
$GNRMC,104604.000,A,3355.88680,S,01852.05760,E,2.60,331.48,010921,,,A,V*16
$GNRMC,104605.000,A,3355.88600,S,01852.05763,E,2.88,358.58,010921,,,A,V*14
$GNRMC,104606.000,A,3355.88531,S,01852.05767,E,1.63,358.58,010921,,,A,V*14
$GNRMC,104607.000,A,3355.88481,S,01852.05749,E,1.98,321.13,010921,,,A,V*16
$GNRMC,104608.000,A,3355.88427,S,01852.05723,E,2.36,326.15,010921,,,A,V*1F
$GNRMC,104609.000,A,3355.88370,S,01852.05703,E,2.04,341.08,010921,,,A,V*15
$GNRMC,104610.000,A,3355.88316,S,01852.05688,E,1.96,337.33,010921,,,A,V*1E

//c

$GNRMC,104611.000,A,3355.88262,S,01852.05666,E,2.39,335.64,010921,,,A,V*1B
$GNRMC,104612.000,A,3355.88214,S,01852.05635,E,2.45,304.15,010921,,,A,V*10
$GNRMC,104613.000,A,3355.88193,S,01852.05612,E,0.68,304.15,010921,,,A,V*15
$GNRMC,104614.000,A,3355.88187,S,01852.05601,E,0.75,304.15,010921,,,A,V*19
$GNRMC,104615.000,A,3355.88166,S,01852.05578,E,1.92,304.15,010921,,,A,V*12
$GNRMC,104616.000,A,3355.88157,S,01852.05558,E,0.64,304.15,010921,,,A,V*19
$GNRMC,104617.000,A,3355.88141,S,01852.05571,E,1.33,304.15,010921,,,A,V*17
$GNRMC,104618.000,A,3355.88101,S,01852.05580,E,1.59,304.15,010921,,,A,V*1E
$GNRMC,104619.000,A,3355.88065,S,01852.05557,E,1.76,304.15,010921,,,A,V*1B
$GNRMC,104620.000,A,3355.88033,S,01852.05497,E,2.23,299.03,010921,,,A,V*1E
$GNRMC,104621.000,A,3355.88009,S,01852.05425,E,2.35,274.17,010921,,,A,V*1E
$GNRMC,104622.000,A,3355.88018,S,01852.05334,E,3.27,259.29,010921,,,A,V*1A
$GNRMC,104623.000,A,3355.88030,S,01852.05250,E,2.23,253.68,010921,,,A,V*18
$GNRMC,104624.000,A,3355.88055,S,01852.05179,E,2.62,236.92,010921,,,A,V*17
$GNRMC,104625.000,A,3355.88070,S,01852.05089,E,2.93,269.08,010921,,,A,V*18
$GNRMC,104626.000,A,3355.88065,S,01852.04993,E,2.99,265.56,010921,,,A,V*11
$GNRMC,104627.000,A,3355.88062,S,01852.04912,E,1.62,265.56,010921,,,A,V*19
$GNRMC,104628.000,A,3355.88059,S,01852.04861,E,0.94,265.56,010921,,,A,V*13
$GNRMC,104629.000,A,3355.88062,S,01852.04809,E,1.55,265.56,010921,,,A,V*18
$GNRMC,104630.000,A,3355.88066,S,01852.04723,E,2.63,262.03,010921,,,A,V*12
$GNRMC,104631.000,A,3355.88058,S,01852.04621,E,2.51,276.70,010921,,,A,V*1D
$GNRMC,104632.000,A,3355.88042,S,01852.04511,E,2.63,273.46,010921,,,A,V*14
$GNRMC,104633.000,A,3355.88033,S,01852.04423,E,1.66,273.46,010921,,,A,V*15
$GNRMC,104634.000,A,3355.88020,S,01852.04338,E,2.04,279.36,010921,,,A,V*17
$GNRMC,104635.000,A,3355.88015,S,01852.04239,E,2.48,260.96,010921,,,A,V*1A
$GNRMC,104636.000,A,3355.88011,S,01852.04136,E,2.49,274.60,010921,,,A,V*1C
$GNRMC,104637.000,A,3355.88002,S,01852.04031,E,2.70,273.15,010921,,,A,V*16
$GNRMC,104638.000,A,3355.88006,S,01852.03923,E,2.87,255.74,010921,,,A,V*1B
$GNRMC,104639.000,A,3355.88024,S,01852.03835,E,2.17,247.42,010921,,,A,V*13
$GNRMC,104640.000,A,3355.88066,S,01852.03744,E,3.10,224.96,010921,,,A,V*18
$GNRMC,104641.000,A,3355.88109,S,01852.03670,E,1.88,224.96,010921,,,A,V*14
$GNRMC,104642.000,A,3355.88113,S,01852.03608,E,2.54,282.01,010921,,,A,V*13
$GNRMC,104643.000,A,3355.88118,S,01852.03511,E,2.69,249.53,010921,,,A,V*1C
$GNRMC,104644.000,A,3355.88123,S,01852.03430,E,2.23,263.98,010921,,,A,V*10
$GNRMC,104645.000,A,3355.88104,S,01852.03348,E,2.76,276.47,010921,,,A,V*1A
$GNRMC,104646.000,A,3355.88087,S,01852.03255,E,2.88,266.70,010921,,,A,V*1A
$GNRMC,104647.000,A,3355.88084,S,01852.03166,E,2.37,273.98,010921,,,A,V*1D
$GNRMC,104648.000,A,3355.88091,S,01852.03081,E,2.43,242.71,010921,,,A,V*18
$GNRMC,104649.000,A,3355.88121,S,01852.02993,E,3.19,242.72,010921,,,A,V*15
$GNRMC,104650.000,A,3355.88124,S,01852.02913,E,1.81,242.72,010921,,,A,V*13
$GNRMC,104651.000,A,3355.88106,S,01852.02829,E,2.57,281.59,010921,,,A,V*14
$GNRMC,104652.000,A,3355.88095,S,01852.02731,E,2.74,257.70,010921,,,A,V*1B
$GNRMC,104653.000,A,3355.88116,S,01852.02633,E,2.97,238.43,010921,,,A,V*17
$GNRMC,104654.000,A,3355.88139,S,01852.02538,E,2.97,253.87,010921,,,A,V*10
$GNRMC,104655.000,A,3355.88148,S,01852.02442,E,2.11,267.40,010921,,,A,V*19
$GNRMC,104656.000,A,3355.88152,S,01852.02362,E,2.08,264.34,010921,,,A,V*1C
$GNRMC,104657.000,A,3355.88172,S,01852.02285,E,2.09,240.32,010921,,,A,V*16
$GNRMC,104658.000,A,3355.88209,S,01852.02178,E,3.98,250.90,010921,,,A,V*17
$GNRMC,104659.000,A,3355.88230,S,01852.02087,E,1.81,250.90,010921,,,A,V*17
$GNRMC,104700.000,A,3355.88236,S,01852.02024,E,1.90,250.90,010921,,,A,V*15
$GNRMC,104701.000,A,3355.88236,S,01852.01964,E,1.46,250.90,010921,,,A,V*11
$GNRMC,104702.000,A,3355.88241,S,01852.01886,E,2.34,265.63,010921,,,A,V*13
$GNRMC,104703.000,A,3355.88253,S,01852.01784,E,3.03,254.22,010921,,,A,V*1E
$GNRMC,104704.000,A,3355.88276,S,01852.01665,E,3.30,251.96,010921,,,A,V*1A
$GNRMC,104705.000,A,3355.88289,S,01852.01563,E,2.14,267.35,010921,,,A,V*15
$GNRMC,104706.000,A,3355.88292,S,01852.01488,E,1.89,267.35,010921,,,A,V*1F
$GNRMC,104707.000,A,3355.88318,S,01852.01406,E,2.77,234.02,010921,,,A,V*1B
$GNRMC,104708.000,A,3355.88331,S,01852.01296,E,3.40,261.29,010921,,,A,V*1C
$GNRMC,104709.000,A,3355.88335,S,01852.01203,E,1.78,261.29,010921,,,A,V*1C
$GNRMC,104710.000,A,3355.88306,S,01852.01146,E,2.05,316.94,010921,,,A,V*18
$GNRMC,104711.000,A,3355.88287,S,01852.01069,E,2.21,261.55,010921,,,A,V*17
$GNRMC,104712.000,A,3355.88274,S,01852.01002,E,1.60,261.55,010921,,,A,V*13
$GNRMC,104713.000,A,3355.88281,S,01852.00928,E,1.93,261.55,010921,,,A,V*14
$GNRMC,104714.000,A,3355.88289,S,01852.00857,E,1.53,261.55,010921,,,A,V*1E
$GNRMC,104715.000,A,3355.88292,S,01852.00771,E,1.80,261.55,010921,,,A,V*10
$GNRMC,104716.000,A,3355.88287,S,01852.00752,E,0.00,261.55,010921,,,A,V*1F
$GNRMC,104717.000,A,3355.88289,S,01852.00732,E,0.00,261.55,010921,,,A,V*16
$GNRMC,104718.000,A,3355.88290,S,01852.00717,E,0.00,261.55,010921,,,A,V*16
$GNRMC,104719.000,A,3355.88287,S,01852.00652,E,1.41,261.55,010921,,,A,V*15
$GNRMC,104720.000,A,3355.88277,S,01852.00559,E,2.67,278.98,010921,,,A,V*16
$GNRMC,104721.000,A,3355.88278,S,01852.00448,E,2.08,261.17,010921,,,A,V*1F
$GNRMC,104722.000,A,3355.88309,S,01852.00352,E,2.52,226.68,010921,,,A,V*13
$GNRMC,104723.000,A,3355.88345,S,01852.00259,E,2.32,238.39,010921,,,A,V*1D
$GNRMC,104724.000,A,3355.88364,S,01852.00157,E,2.15,249.48,010921,,,A,V*11
$GNRMC,104725.000,A,3355.88368,S,01852.00074,E,0.81,249.48,010921,,,A,V*13
$GNRMC,104726.000,A,3355.88378,S,01852.00007,E,1.24,249.48,010921,,,A,V*1B
$GNRMC,104727.000,A,3355.88410,S,01851.99893,E,3.93,247.85,010921,,,A,V*14
$GNRMC,104728.000,A,3355.88430,S,01851.99766,E,2.08,249.47,010921,,,A,V*1F
$GNRMC,104729.000,A,3355.88433,S,01851.99659,E,1.51,249.47,010921,,,A,V*1F
$GNRMC,104730.000,A,3355.88416,S,01851.99563,E,2.03,285.87,010921,,,A,V*12
$GNRMC,104731.000,A,3355.88411,S,01851.99451,E,2.23,262.80,010921,,,A,V*18
$GNRMC,104732.000,A,3355.88418,S,01851.99334,E,2.90,261.54,010921,,,A,V*14
$GNRMC,104733.000,A,3355.88422,S,01851.99200,E,3.29,270.13,010921,,,A,V*1A
$GNRMC,104734.000,A,3355.88418,S,01851.99083,E,2.35,281.23,010921,,,A,V*1C
$GNRMC,104735.000,A,3355.88444,S,01851.98988,E,3.12,232.01,010921,,,A,V*1B
$GNRMC,104736.000,A,3355.88475,S,01851.98884,E,2.55,262.28,010921,,,A,V*1B
$GNRMC,104737.000,A,3355.88469,S,01851.98783,E,2.79,277.16,010921,,,A,V*18
$GNRMC,104738.000,A,3355.88459,S,01851.98699,E,2.00,289.09,010921,,,A,V*1F
$GNRMC,104739.000,A,3355.88443,S,01851.98601,E,3.31,283.65,010921,,,A,V*17
$GNRMC,104740.000,A,3355.88435,S,01851.98510,E,2.10,273.60,010921,,,A,V*13
$GNRMC,104741.000,A,3355.88444,S,01851.98444,E,1.55,273.60,010921,,,A,V*16
$GNRMC,104742.000,A,3355.88456,S,01851.98379,E,1.86,273.60,010921,,,A,V*11
$GNRMC,104743.000,A,3355.88460,S,01851.98297,E,2.52,264.51,010921,,,A,V*1A
$GNRMC,104744.000,A,3355.88475,S,01851.98211,E,2.20,259.56,010921,,,A,V*1B
$GNRMC,104745.000,A,3355.88488,S,01851.98128,E,2.37,257.77,010921,,,A,V*1A
$GNRMC,104746.000,A,3355.88518,S,01851.98058,E,2.08,231.95,010921,,,A,V*17
$GNRMC,104747.000,A,3355.88548,S,01851.97989,E,2.21,248.43,010921,,,A,V*17
$GNRMC,104748.000,A,3355.88559,S,01851.97898,E,2.72,258.06,010921,,,A,V*1F
$GNRMC,104749.000,A,3355.88598,S,01851.97804,E,2.87,231.00,010921,,,A,V*15
$GNRMC,104750.000,A,3355.88628,S,01851.97740,E,1.42,231.00,010921,,,A,V*10
$GNRMC,104751.000,A,3355.88646,S,01851.97664,E,2.49,253.88,010921,,,A,V*12
$GNRMC,104752.000,A,3355.88656,S,01851.97574,E,2.38,257.33,010921,,,A,V*10
$GNRMC,104753.000,A,3355.88665,S,01851.97483,E,2.06,256.93,010921,,,A,V*1E
$GNRMC,104754.000,A,3355.88687,S,01851.97398,E,2.60,241.38,010921,,,A,V*1F
$GNRMC,104755.000,A,3355.88709,S,01851.97316,E,2.06,255.01,010921,,,A,V*10
$GNRMC,104756.000,A,3355.88720,S,01851.97239,E,2.07,261.06,010921,,,A,V*15
$GNRMC,104757.000,A,3355.88726,S,01851.97159,E,2.12,261.40,010921,,,A,V*11
$GNRMC,104758.000,A,3355.88745,S,01851.97088,E,1.93,261.40,010921,,,A,V*1C
$GNRMC,104759.000,A,3355.88763,S,01851.97019,E,2.02,247.26,010921,,,A,V*1E
$GNRMC,104800.000,A,3355.88782,S,01851.96965,E,1.15,247.26,010921,,,A,V*14
$GNRMC,104801.000,A,3355.88791,S,01851.96907,E,1.61,247.26,010921,,,A,V*10
$GNRMC,104802.000,A,3355.88788,S,01851.96815,E,2.48,268.84,010921,,,A,V*14
$GNRMC,104803.000,A,3355.88799,S,01851.96732,E,1.85,268.84,010921,,,A,V*1D
$GNRMC,104804.000,A,3355.88817,S,01851.96635,E,2.61,250.20,010921,,,A,V*19
$GNRMC,104805.000,A,3355.88815,S,01851.96541,E,2.41,286.12,010921,,,A,V*12
$GNRMC,104806.000,A,3355.88819,S,01851.96464,E,1.27,286.12,010921,,,A,V*18
$GNRMC,104807.000,A,3355.88831,S,01851.96390,E,2.03,265.68,010921,,,A,V*1A
$GNRMC,104808.000,A,3355.88846,S,01851.96311,E,1.85,265.68,010921,,,A,V*11
$GNRMC,104809.000,A,3355.88853,S,01851.96250,E,1.88,265.68,010921,,,A,V*1D
$GNRMC,104810.000,A,3355.88869,S,01851.96152,E,3.02,255.33,010921,,,A,V*10
$GNRMC,104811.000,A,3355.88921,S,01851.96057,E,3.97,214.46,010921,,,A,V*13
$GNRMC,104812.000,A,3355.88973,S,01851.95958,E,3.15,249.67,010921,,,A,V*13
$GNRMC,104813.000,A,3355.88971,S,01851.95867,E,2.13,282.11,010921,,,A,V*1C
$GNRMC,104814.000,A,3355.88977,S,01851.95789,E,2.10,251.54,010921,,,A,V*1E
$GNRMC,104815.000,A,3355.88984,S,01851.95687,E,3.12,276.31,010921,,,A,V*19
$GNRMC,104816.000,A,3355.88971,S,01851.95583,E,3.16,273.16,010921,,,A,V*13
$GNRMC,104817.000,A,3355.88966,S,01851.95485,E,2.13,276.08,010921,,,A,V*1D
$GNRMC,104818.000,A,3355.88978,S,01851.95418,E,1.96,248.01,010921,,,A,V*13
$GNRMC,104819.000,A,3355.88996,S,01851.95336,E,2.29,250.22,010921,,,A,V*16
$GNRMC,104820.000,A,3355.89033,S,01851.95252,E,2.00,233.29,010921,,,A,V*1D
$GNRMC,104821.000,A,3355.89052,S,01851.95166,E,2.12,258.34,010921,,,A,V*1D
$GNRMC,104822.000,A,3355.89054,S,01851.95062,E,3.07,268.08,010921,,,A,V*14
$GNRMC,104823.000,A,3355.89050,S,01851.94942,E,3.12,269.03,010921,,,A,V*15
$GNRMC,104824.000,A,3355.89054,S,01851.94825,E,3.22,265.21,010921,,,A,V*19
$GNRMC,104825.000,A,3355.89053,S,01851.94725,E,1.99,272.14,010921,,,A,V*12
$GNRMC,104826.000,A,3355.89045,S,01851.94632,E,2.67,270.81,010921,,,A,V*1D
$GNRMC,104827.000,A,3355.89044,S,01851.94615,E,0.00,270.81,010921,,,A,V*1B
$GNRMC,104828.000,A,3355.89039,S,01851.94600,E,0.00,270.81,010921,,,A,V*1A
$GNRMC,104829.000,A,3355.89025,S,01851.94584,E,0.00,270.81,010921,,,A,V*19
$GNRMC,104830.000,A,3355.89049,S,01851.94530,E,1.94,217.41,010921,,,A,V*15
$GNRMC,104831.000,A,3355.89081,S,01851.94470,E,2.17,225.32,010921,,,A,V*18
$GNRMC,104832.000,A,3355.89081,S,01851.94395,E,2.02,276.39,010921,,,A,V*1E
$GNRMC,104833.000,A,3355.89090,S,01851.94308,E,2.58,247.49,010921,,,A,V*11
$GNRMC,104834.000,A,3355.89111,S,01851.94235,E,1.87,247.49,010921,,,A,V*10
$GNRMC,104835.000,A,3355.89126,S,01851.94156,E,2.25,261.38,010921,,,A,V*1A
$GNRMC,104836.000,A,3355.89139,S,01851.94069,E,2.44,250.93,010921,,,A,V*1E
$GNRMC,104837.000,A,3355.89166,S,01851.94020,E,1.42,250.93,010921,,,A,V*1D
$GNRMC,104838.000,A,3355.89180,S,01851.93981,E,0.78,250.93,010921,,,A,V*17
$GNRMC,104839.000,A,3355.89158,S,01851.93932,E,1.58,250.93,010921,,,A,V*18
$GNRMC,104840.000,A,3355.89140,S,01851.93882,E,0.65,250.93,010921,,,A,V*1A
$GNRMC,104841.000,A,3355.89152,S,01851.93803,E,2.56,258.07,010921,,,A,V*16
$GNRMC,104842.000,A,3355.89193,S,01851.93701,E,3.76,224.24,010921,,,A,V*1C
$GNRMC,104843.000,A,3355.89243,S,01851.93589,E,3.35,240.20,010921,,,A,V*10
$GNRMC,104844.000,A,3355.89267,S,01851.93440,E,4.07,269.42,010921,,,A,V*1C
$GNRMC,104845.000,A,3355.89244,S,01851.93271,E,4.33,284.98,010921,,,A,V*1B
$GNRMC,104846.000,A,3355.89225,S,01851.93131,E,2.77,267.14,010921,,,A,V*17
$GNRMC,104847.000,A,3355.89230,S,01851.93034,E,1.90,267.14,010921,,,A,V*1C
$GNRMC,104848.000,A,3355.89209,S,01851.92907,E,3.72,273.28,010921,,,A,V*15
$GNRMC,104849.000,A,3355.89197,S,01851.92764,E,3.05,279.01,010921,,,A,V*1A
$GNRMC,104850.000,A,3355.89159,S,01851.92647,E,2.77,288.75,010921,,,A,V*19
$GNRMC,104851.000,A,3355.89133,S,01851.92533,E,3.32,283.48,010921,,,A,V*11
$GNRMC,104852.000,A,3355.89134,S,01851.92431,E,3.41,269.76,010921,,,A,V*1B
$GNRMC,104853.000,A,3355.89170,S,01851.92343,E,2.75,252.96,010921,,,A,V*18
$GNRMC,104854.000,A,3355.89189,S,01851.92255,E,2.39,255.71,010921,,,A,V*19
$GNRMC,104855.000,A,3355.89203,S,01851.92173,E,2.33,262.76,010921,,,A,V*17
$GNRMC,104856.000,A,3355.89233,S,01851.92089,E,2.79,238.83,010921,,,A,V*18
$GNRMC,104857.000,A,3355.89260,S,01851.92000,E,1.65,238.83,010921,,,A,V*10
$GNRMC,104858.000,A,3355.89282,S,01851.91930,E,1.64,238.83,010921,,,A,V*1B
$GNRMC,104859.000,A,3355.89306,S,01851.91853,E,1.86,238.83,010921,,,A,V*1F
$GNRMC,104900.000,A,3355.89332,S,01851.91773,E,1.97,241.21,010921,,,A,V*1E
$GNRMC,104901.000,A,3355.89348,S,01851.91694,E,2.49,289.50,010921,,,A,V*18
$GNRMC,104902.000,A,3355.89357,S,01851.91608,E,2.20,268.35,010921,,,A,V*13
$GNRMC,104903.000,A,3355.89375,S,01851.91537,E,1.53,268.35,010921,,,A,V*1A
$GNRMC,104904.000,A,3355.89398,S,01851.91455,E,2.43,258.40,010921,,,A,V*18
$GNRMC,104905.000,A,3355.89405,S,01851.91381,E,1.51,258.40,010921,,,A,V*14
$GNRMC,104906.000,A,3355.89413,S,01851.91289,E,2.94,267.78,010921,,,A,V*14
$GNRMC,104907.000,A,3355.89427,S,01851.91194,E,1.98,267.29,010921,,,A,V*16
$GNRMC,104908.000,A,3355.89438,S,01851.91138,E,1.54,267.29,010921,,,A,V*11
$GNRMC,104909.000,A,3355.89457,S,01851.91085,E,1.79,267.29,010921,,,A,V*11
$GNRMC,104910.000,A,3355.89475,S,01851.90977,E,3.90,266.44,010921,,,A,V*13
$GNRMC,104911.000,A,3355.89483,S,01851.90877,E,2.03,262.74,010921,,,A,V*16
$GNRMC,104912.000,A,3355.89509,S,01851.90802,E,2.09,242.69,010921,,,A,V*10
$GNRMC,104913.000,A,3355.89517,S,01851.90738,E,1.79,242.69,010921,,,A,V*1C
$GNRMC,104914.000,A,3355.89513,S,01851.90669,E,1.87,242.69,010921,,,A,V*1B
$GNRMC,104915.000,A,3355.89511,S,01851.90587,E,2.57,270.91,010921,,,A,V*13
$GNRMC,104916.000,A,3355.89503,S,01851.90490,E,2.75,266.01,010921,,,A,V*1A
$GNRMC,104917.000,A,3355.89509,S,01851.90401,E,2.21,258.29,010921,,,A,V*1F
$GNRMC,104918.000,A,3355.89527,S,01851.90335,E,1.63,258.29,010921,,,A,V*19
$GNRMC,104919.000,A,3355.89545,S,01851.90283,E,1.55,258.29,010921,,,A,V*15
