//abbbbbb,,,,,,,,GPS track angle,,,,,,,,,,,,,,,,,,,,,,,,,,,,,,,,,,,,,,,,,,,,,
,,,,,,,,,,,,,,,,start: a,3356.05315,1851.76953,,,,,,,,,,,,,,,,,,,,,,,,,,,,,,,,,,,
,,,,,,,,,,,,,,,,b,3356.00856,1852.06961,,,,,,,,,,,,,,,,,,,,,,,,,,,,,,,,,,,
$GNRMC,103548,V,,,,,,,10921,,,M,V*2A,,,c,3355.88316,1852.05688,,,,100,,,,,,,,,,,,,,,,,,,,,,,,,,,,,,,
$GNRMC,103549,V,,,,,,,10921,,,M,V*2B,,,d,3355.91675,1851.73418,,,,,,,,,,,,,,,,,,,,,,,,,,,,,,,,,,,
$GNRMC,103550,V,,,,,,,10921,,,M,V*23,,,,,,,,,,,,,,,,,,,,,,,,,,,,,,,,,,,,,,,,
$GNRMC,103551,V,,,,,,,10921,,,M,V*22,,,,,,,,,,,,,,,,,,,,,,,0.00,7.34870953356132E-05,0.468186284383192,,,,,,,,,,,,,,,
$GNRMC,103552,V,,,,,,,10921,,,M,V*21,,,,,,,,,,,,,,,,,,,,,,,,,,,,,,,,,,,,,,,,
$GNRMC,103553,V,,,,,,,10921,,,M,V*20,,,,,,,,,latitude,longitude,,Lat-sec,long-sec,Latitude-deg,Long-deg,Lat-final-deg,Long-final-deg,Lat-fin-rad,Long-fin-rad,a,c,distance(m),displacement(m),Reference bearing,,,,,,,,,,,,,,,,
$GNRMC,103555.005,A,3356.05315,S,1851.76953,E,0.53,0,10921,,,E,V*1E,,,,,,,,,3356.05315,1851.76953,0,93.421916666667,86.2825500000001,33,18,33.9342191666667,18.8628255,0.5922638535517,0.329218411204146,0,0,0,0.00,100.152457804072,,,,,,,,,,,,,,,,
$GNRMC,103555.995,A,3356.05291,S,1851.76913,E,0.63,0,10921,,,A,V*10,,,,,,,,,3356.05291,1851.76913,0,93.4215166666665,86.2818833333332,33,18,33.9342151666667,18.8628188333333,0.59226378373853,0.329218294848862,3.54834389159851E-15,1.191359541297E-07,0.75901516376032,0.76,100.152457804072,,,,,,,,,,,,,,,,
$GNRMC,103557,A,3356.05248,S,1851.76873,E,0.89,0,10921,,,A,V*10,,,,,,,,,3356.05248,1851.76873,0,93.4207999999997,86.2812166666667,33,18,33.934208,18.8628121666667,0.5922636586566,0.329218178493579,6.24124680535046E-15,1.58003124087475E-07,1.0066379035613,1.77,100.152457804072,,,,,,,,,,,,,,,,
$GNRMC,103558,A,3356.05195,S,1851.76845,E,0.39,0,10921,,,A,V*12,,,,,,,,,3356.05195,1851.76845,0,93.4199166666667,86.2807500000001,33,18,33.9341991666667,18.8628075,0.592263504485849,0.32921809704488,7.08379381565965E-15,1.68330553562444E-07,1.07243395674633,2.84,100.152457804072,,,,,,,,,,,,,,,,
$GNRMC,103559,A,3356.05154,S,1851.76841,E,0.96,0,10921,,,A,V*1F,,,,,,,,,3356.05154,1851.76841,0,93.4192333333332,86.2806833333332,33,18,33.9341923333333,18.8628068333333,0.592263385221684,0.329218085409352,3.57928404300774E-15,1.19654235913448E-07,0.762317137004575,3.60,100.152457804072,,,,,,,,,,,,,,,,
$GNRMC,103600,A,3356.05129,S,1851.76847,E,0.85,0,10921,,,A,V*1E,,,,,,,,,3356.05129,1851.76847,0,93.4188166666665,86.2807833333333,33,18,33.9341881666667,18.8628078333333,0.592263312499632,0.329218102862644,1.37454642451279E-15,7.41497518407927E-08,0.47240806897769,4.07,100.152457804072,,,,,,,,,,,,,,,,
$GNRMC,103601,A,3356.05147,S,1851.76842,E,0.78,0,10921,,,A,V*10,,,,,,,,,3356.05147,1851.76842,0,93.4191166666665,86.2807000000002,33,18,33.9341911666667,18.862807,0.592263364859509,0.329218088318234,7.21793502006243E-16,5.37324297610388E-08,0.342329310007578,4.42,100.152457804072,,,,,,,,,,,,,,,,
$GNRMC,103601.997,A,3356.05147,S,1851.76819,E,0.31,0,10921,,,A,V*14,,,,,,,,,3356.05147,1851.76819,0,93.4191166666665,86.2803166666667,33,18,33.9341911666667,18.8628031666667,0.592263364859509,0.329218021413946,7.70315131420699E-16,5.55091030884376E-08,0.353648495776436,4.77,100.152457804072,,,,,,,,,,,,,,,,
$GNRMC,103603,A,3356.05089,S,1851.76787,E,0.36,0,10921,,,A,V*1D,,,,,,,,,3356.05089,1851.76787,0,93.41815,86.2797833333332,33,18,33.9341815,18.8627978333333,0.592263196144348,0.329217928329719,8.60732195843832E-15,1.8555130782011E-07,1.18214738212192,5.95,100.152457804072,,,,,lat,long,Lat-rad,Long-rad,,bearing,x,y,atan(rad),atan(deg),reformatted,should be:
$GNRMC,103604,A,3356.05022,S,1851.76754,E,0.5,0,10921,,,A,V*15,,,,,,,,,3356.05022,1851.76754,0,93.4170333333335,86.2792333333334,33,18,33.9341703333333,18.8627923333333,0.592263001249248,0.32921783233661,1.1081797153898E-14,2.10540230396929E-07,1.34135180785884,7.29,100.152457804072,,,1,start: a,3356.05315,1851.76953,0.5922638535517,0.329218411204146,,A-b,7.24230935836279E-05,-1.2968940682978E-05,1.74799014264575,100.152457804072,100.152457804072,78 38’ 35’’
$GNRMC,103605,A,3356.04964,S,1851.76716,E,0.25,0,10921,,,A,V*1A,,,,,,,,,3356.04964,1851.76716,0,93.416066666667,86.2786000000002,33,18,33.9341606666667,18.862786,0.592262832534087,0.329217721799091,9.21891540888479E-15,1.92030366441194E-07,1.22342546459685,8.52,100.152457804072,,,2,b,3356.00856,1852.06961,0.592250882846475,0.329305700937802,,B-c,-3.12550713042384E-06,-3.66344577050204E-05,-3.056482707098,-175.123559271436,184.876440728564,355 05’ 38’’
$GNRMC,103606,A,3356.04913,S,1851.76694,E,0.58,0,10921,,,A,V*18,,,,,,,,,3356.04913,1851.76694,0,93.4152166666665,86.2782333333333,33,18,33.9341521666667,18.8627823333333,0.592262684181101,0.329217657803685,6.20694011250904E-15,1.57568272345787E-07,1.00386746311501,9.52,100.152457804072,,,,c,3355.88316,1852.05688,0.592214248385476,0.3293019339355,,C-d,-7.78378713721566E-05,1.01307654986615E-05,-1.44137171451595,-82.5845159512994,277.415484048701,262 35’ 04’’
$GNRMC,103607,A,3356.0485,S,1851.76677,E,0.09,0,10921,,,A,V*16,,,,,,,,,3356.0485,1851.76677,0,93.4141666666665,86.2779499999999,33,18,33.9341416666667,18.8627795,0.592262500921529,0.32921760835269,8.81685186173951E-15,1.87796185922287E-07,1.19644950051089,10.72,100.152457804072,,,,d,3355.91675,1851.73418,0.592224377112902,0.329208119579323,,D-a,-0.323293774464622,-0.528231448947244,-2.59237410427875,-148.532095094179,211.467904905821,172 39’ 56’’
$GNRMC,103608,A,3356.04767,S,1851.7667,E,0.54,0,10921,,,A,V*16,,,,,,,,,3356.04767,1851.7667,0,93.4127833333332,86.2778333333332,33,18,33.9341278333333,18.8627783333333,0.592262259484316,0.329217587990515,1.46443344911598E-14,2.42027556209287E-07,1.54195756060937,12.26,100.152457804072,,,,start: a,3356.05315,1851.76953,,,,,,,,,,
$GNRMC,103609,A,3356.04684,S,1851.76666,E,0.2,0,10921,,,A,V*14,,,,,,,,,3356.04684,1851.76666,0,93.4114,86.2777666666667,33,18,33.934114,18.8627776666667,0.592262018047103,0.329217576354987,1.45962807767652E-14,2.41630137000874E-07,1.53942560283257,13.80,100.152457804072,,,,,,,,,,,,,,,,
$GNRMC,103610,A,3356.04608,S,1851.76654,E,0.42,0,10921,,,A,V*1D,,,,,,,,,3356.04608,1851.76654,0,93.4101333333335,86.2775666666668,33,18,33.9341013333333,18.8627756666667,0.592261796972065,0.329217541448402,1.24282323795995E-14,2.22963964618497E-07,1.42050341858444,15.22,100.152457804072,,,,,,,,,,,,,,,,
$GNRMC,103611,A,3356.04539,S,1851.76601,E,0.79,0,10921,,,A,V*15,,,,,,,,,3356.04539,1851.76601,0,93.4089833333337,86.2766833333334,33,18,33.9340898333333,18.8627668333333,0.592261596259201,0.329217387277651,1.41618105328064E-14,2.38006811102594E-07,1.51634139353463,16.73,100.152457804072,,,,,,,,,,,,,,,,
$GNRMC,103612,A,3356.04461,S,1851.76508,E,0,0,10921,,,A,V*1E,,,,,,,,,3356.04461,1851.76508,0,93.4076833333332,86.2751333333332,33,18,33.9340768333333,18.8627513333333,0.592261369366398,0.329217116751617,2.54645518865633E-14,3.1915232655623E-07,2.03331947248974,18.77,100.152457804072,,,,,,,,,,,,,,,,
$GNRMC,103613,A,3356.0444,S,1851.76454,E,0,0,10921,,,A,V*14,,,,,,,,,3356.0444,1851.76454,0,93.4073333333337,86.2742333333332,33,18,33.9340733333333,18.8627423333333,0.592261308279874,0.329216959671984,5.17910076114416E-15,1.43931938931485E-07,0.91699038293249,19.68,100.152457804072,,,,,,,,,,,,,,,,
$GNRMC,103614,A,3356.04413,S,1851.76434,E,0,0,10921,,,A,V*13,,,,,,,,,3356.04413,1851.76434,0,93.4068833333337,86.2738999999999,33,18,33.9340688333333,18.862739,0.592261229740058,0.329216901494343,2.12459624278463E-15,9.21866854330849E-08,0.587321372894184,20.27,100.152457804072,,,,,,,,,,,,,,,,
$GNRMC,103615,A,3356.04415,S,1851.76424,E,1.12,0,10921,,,A,V*17,,,,,,,,,3356.04415,1851.76424,0,93.406916666667,86.2737333333333,33,18,33.9340691666667,18.8627373333333,0.592261235557822,0.329216872405522,1.5407923971026E-16,2.4825731788631E-08,0.158164737225368,20.43,100.152457804072,,,,,,,,,,,,,,,,
$GNRMC,103616,A,3356.04388,S,1851.76419,E,0,0,10921,,,A,V*1B,,,,,,,,,3356.04388,1851.76419,0,93.406466666667,86.2736500000002,33,18,33.9340646666667,18.8627365,0.592261157018006,0.329216857861111,1.57853009525756E-15,7.946143958569E-08,0.506248831600431,20.94,100.152457804072,,,,,,,,,,,,,,,,
$GNRMC,103617,A,3356.04357,S,1851.76398,E,0,0,10921,,,A,V*16,,,,,,,,,3356.04357,1851.76398,0,93.4059499999997,86.2732999999999,33,18,33.9340595,18.862733,0.592261066842661,0.329216796774587,2.67507212380784E-15,1.03442198812822E-07,0.659030248636488,21.60,100.152457804072,,,,,,,,,,,,,,,,
$GNRMC,103618,A,3356.04325,S,1851.76389,E,0,0,10921,,,A,V*1C,,,,,,,,,3356.04325,1851.76389,0,93.405416666667,86.2731499999999,33,18,33.9340541666667,18.8627315,0.592260973758434,0.329216770594649,2.28411863922963E-15,9.55849075791702E-08,0.608971446186894,22.20,100.152457804072,,,,,,,,,,,,,,,,
$GNRMC,103619,A,3356.04333,S,1851.76406,E,0.81,0,10921,,,A,V*13,,,,,,,,,3356.04333,1851.76406,0,93.40555,86.2734333333333,33,18,33.9340555,18.8627343333333,0.592260997029491,0.329216820045644,5.56220652906217E-16,4.71686613295827E-08,0.300511541330771,22.50,100.152457804072,,,,,,,,,,,,,,,,
$GNRMC,103620,A,3356.04337,S,1851.7641,E,0,0,10921,,,A,V*13,,,,,,,,,3356.04337,1851.7641,0,93.4056166666664,86.2735000000002,33,18,33.9340561666667,18.862735,0.592261008665019,0.329216831681173,5.71452103127195E-17,1.51188902122768E-08,0.096322449542415,22.60,100.152457804072,,,,,,,,,,,,,,,,
$GNRMC,103621,A,3356.04316,S,1851.76411,E,0,0,10921,,,A,V*10,,,,,,,,,3356.04316,1851.76411,0,93.4052666666669,86.2735166666668,33,18,33.9340526666667,18.8627351666667,0.592260947578495,0.329216834590055,9.34347025632901E-16,6.11341811307848E-08,0.38948586798423,22.99,100.152457804072,,,,,,,,,,,,,,,,
$GNRMC,103622,A,3356.0429,S,1851.76408,E,0,0,10921,,,A,V*14,,,,,,,,,3356.0429,1851.76408,0,93.4048333333332,86.2734666666665,33,18,33.9340483333333,18.8627346666667,0.592260871947561,0.329216825863408,1.44311514935026E-15,7.59767108882783E-08,0.484047625069221,23.47,100.152457804072,,,,,,,,,,,,,,,,
$GNRMC,103623,A,3356.04292,S,1851.76413,E,0,0,10921,,,A,V*1D,,,,,,,,,3356.04292,1851.76413,0,93.4048666666664,86.2735500000001,33,18,33.9340486666667,18.8627355,0.592260877765325,0.329216840407819,4.48660238091802E-17,1.33964209860963E-08,0.08534859810242,23.56,100.152457804072,,,,,,,,,,,,,,,,
$GNRMC,103624,A,3356.04275,S,1851.7642,E,0,0,10921,,,A,V*13,,,,,,,,,3356.04275,1851.7642,0,93.4045833333335,86.2736666666668,33,18,33.9340458333333,18.8627366666667,0.59226082831433,0.329216860769993,6.82702916502826E-16,5.2257168560986E-08,0.332930420902042,23.89,100.152457804072,,,,,,,,,,,,,,,,
$GNRMC,103625,A,3356.04272,S,1851.76423,E,0,0,10921,,,A,V*16,,,,,,,,,3356.04272,1851.76423,0,93.4045333333332,86.2737166666667,33,18,33.9340453333333,18.8627371666667,0.592260819587683,0.32921686949664,3.21441845574745E-17,1.13391683217905E-08,0.072241841378128,23.97,100.152457804072,,,,,,,,,,,,,,,,
$GNRMC,103626,A,3356.04265,S,1851.76426,E,0,0,10921,,,A,V*16,,,,,,,,,3356.04265,1851.76426,0,93.4044166666665,86.2737666666665,33,18,33.9340441666667,18.8627376666667,0.592260799225509,0.329216878223286,1.16760133055567E-16,2.1611120568408E-08,0.137684449141328,24.10,100.152457804072,,,,,,,,,,,,,,,,
$GNRMC,103627,A,3356.04259,S,1851.7643,E,0,0,10921,,,A,V*1F,,,,,,,,,3356.04259,1851.7643,0,93.4043166666667,86.2738333333334,33,18,33.9340431666667,18.8627383333333,0.592260781772216,0.329216889858814,9.94531917370788E-17,1.99452442188186E-08,0.127071150918093,24.23,100.152457804072,,,,,,,,,,,,,,,,
$GNRMC,103628,A,3356.04251,S,1851.76433,E,0,0,10921,,,A,V*1B,,,,,,,,,3356.04251,1851.76433,0,93.4041833333337,86.2738833333333,33,18,33.9340418333333,18.8627388333333,0.59226075850116,0.329216898585461,1.4849111538831E-16,2.4371386122936E-08,0.155270100989226,24.39,100.152457804072,,,,,,,,,,,,,,,,
$GNRMC,103629,A,3356.04242,S,1851.76438,E,0,0,10921,,,A,V*13,,,,,,,,,3356.04242,1851.76438,0,93.4040333333337,86.2739666666668,33,18,33.9340403333333,18.8627396666667,0.592260732321221,0.329216913129871,2.07751735182189E-16,2.88271909961543E-08,0.183658033836499,24.57,100.152457804072,,,,,,,,,,,,,,,,
$GNRMC,103630,A,3356.04234,S,1851.76447,E,0.09,0,10921,,,A,V*1B,,,,,,,,,3356.04234,1851.76447,0,93.4039,86.2741166666668,33,18,33.934039,18.8627411666667,0.592260709050164,0.32921693930981,2.53335894608524E-16,3.18330579497807E-08,0.202808412198053,24.77,100.152457804072,,,,,,,,,,,,,,,,
$GNRMC,103631,A,3356.04223,S,1851.7646,E,0,0,10921,,,A,V*10,,,,,,,,,3356.04223,1851.7646,0,93.4037166666667,86.2743333333333,33,18,33.9340371666667,18.8627433333333,0.592260677052461,0.329216977125277,5.02057244566685E-16,4.48132678820318E-08,0.285505329676424,25.06,100.152457804072,,,,,,,,,,,,,,,,
$GNRMC,103632,A,3356.042,S,1851.76478,E,0,0,10921,,,A,V*1B,,,,,,,,,3356.042,1851.76478,0,93.4033333333332,86.2746333333333,33,18,33.9340333333333,18.8627463333333,0.592260610148173,0.329217029485154,1.59084748605739E-15,7.97708589914234E-08,0.508220142634358,25.57,100.152457804072,,,,,,,,,,,,,,,,
$GNRMC,103633,A,3356.04195,S,1851.76499,E,0,0,10921,,,A,V*1A,,,,,,,,,3356.04195,1851.76499,0,93.4032499999997,86.2749833333332,33,18,33.9340325,18.8627498333333,0.592260595603763,0.329217090571678,6.95059327151923E-16,5.27279556649762E-08,0.335929805541563,25.90,100.152457804072,,,,,,,,,,,,,,,,
$GNRMC,103634,A,3356.04196,S,1851.76515,E,0,0,10921,,,A,V*1B,,,,,,,,,3356.04196,1851.76515,0,93.4032666666667,86.2752499999999,33,18,33.9340326666667,18.8627525,0.592260598512645,0.329217137113792,3.74896888752165E-16,3.87245084540612E-08,0.246713843360824,26.15,100.152457804072,,,,,,,,,,,,,,,,
$GNRMC,103635,A,3356.04196,S,1851.76525,E,0,0,10921,,,A,V*19,,,,,,,,,3356.04196,1851.76525,0,93.4032666666667,86.2754166666666,33,18,33.9340326666667,18.8627541666667,0.592260598512645,0.329217166202613,1.45617769018092E-16,2.41344375545064E-08,0.15376050165976,26.30,100.152457804072,,,,,,,,,,,,,,,,
$GNRMC,103636,A,3356.04191,S,1851.76538,E,0,0,10921,,,A,V*11,,,,,,,,,3356.04191,1851.76538,0,93.4031833333332,86.2756333333334,33,18,33.9340318333333,18.8627563333333,0.592260583968234,0.32921720401808,2.98979002224038E-16,3.45820185775231E-08,0.2203220403574,26.52,100.152457804072,,,,,,,,,,,,,,,,
$GNRMC,103637,A,3356.04187,S,1851.76549,E,0,0,10921,,,A,V*11,,,,,,,,,3356.04187,1851.76549,0,93.4031166666667,86.2758166666667,33,18,33.9340311666667,18.8627581666667,0.592260572332706,0.329217236015783,2.10043885092057E-16,2.89857816932411E-08,0.184668415167639,26.71,100.152457804072,,,,,,,,,,,,,,,,
$GNRMC,103638,A,3356.04188,S,1851.76566,E,0,0,10921,,,A,V*1C,,,,,,,,,3356.04188,1851.76566,0,93.4031333333337,86.2761,33,18,33.9340313333333,18.862761,0.592260575241588,0.329217285466778,4.22950765728456E-16,4.11315336805452E-08,0.262049001078753,26.97,100.152457804072,,,,,,,,,,,,,,,,
$GNRMC,103639,A,3356.04161,S,1851.76592,E,1.23,0,10921,,,A,V*11,,,,,,,,,3356.04161,1851.76592,0,93.4026833333337,86.2765333333334,33,18,33.9340268333333,18.8627653333333,0.592260496701772,0.329217361097712,2.52650189602057E-15,1.00528640615907E-07,0.640467969363946,27.61,100.152457804072,,,,,,,,,,,,,,,,
$GNRMC,103640,A,3356.04124,S,1851.76616,E,1.42,0,10921,,,A,V*16,,,,,,,,,3356.04124,1851.76616,0,93.4020666666667,86.2769333333332,33,18,33.9340206666667,18.8627693333333,0.592260389073135,0.329217430910882,3.73473940640572E-15,1.22225028638258E-07,0.77869565745434,28.39,100.152457804072,,,,,,,,,,,,,,,,
$GNRMC,103641,A,3356.04071,S,1851.76657,E,1.77,0,10921,,,A,V*15,,,,,,,,,3356.04071,1851.76657,0,93.4011833333337,86.2776166666667,33,18,33.9340118333333,18.8627761666667,0.592260234902384,0.329217550175048,8.38999072898711E-15,1.83193785145535E-07,1.1671276051622,29.56,100.152457804072,,,,,,,,,,,,,,,,
$GNRMC,103642,A,3356.04037,S,1851.76709,E,1.51,0,10921,,,A,V*1A,,,,,,,,,3356.04037,1851.76709,0,93.400616666667,86.2784833333334,33,18,33.9340061666667,18.8627848333333,0.592260136000393,0.329217701436916,6.38290761769388E-15,1.59786202379228E-07,1.01799789535806,30.57,100.152457804072,,,,,,,,,,,,,,,,
$GNRMC,103643,A,3356.04015,S,1851.76759,E,1.48,0,10921,,,A,V*16,,,,,,,,,3356.04015,1851.76759,0,93.4002499999997,86.2793166666665,33,18,33.9340025,18.8627931666667,0.592260072004987,0.329217846881021,4.66429964999071E-15,1.36591356241758E-07,0.870223530616241,31.44,100.152457804072,,,,,,,,,,,,,,,,
$GNRMC,103644,A,3356.04001,S,1851.76808,E,1.1,0,10921,,,A,V*12,,,,,,,,,3356.04001,1851.76808,0,93.4000166666669,86.2801333333334,33,18,33.9340001666667,18.8628013333333,0.592260031280638,0.329217989416243,3.91090336276823E-15,1.25074431644013E-07,0.796849204004008,32.24,100.152457804072,,,,,,,,,,,,,,,,
$GNRMC,103645,A,3356.03959,S,1851.76843,E,1.09,0,10921,,,A,V*17,,,,,,,,,3356.03959,1851.76843,0,93.3993166666664,86.2807166666668,33,18,33.9339931666667,18.8628071666667,0.59225990910759,0.329218091227116,5.51538257444619E-15,1.48531243507165E-07,0.946292552384149,33.19,100.152457804072,,,,,,,,,,,,,,,,
$GNRMC,103646,A,3356.03924,S,1851.76848,E,1.2,0,10921,,,A,V*1E,,,,,,,,,3356.03924,1851.76848,0,93.3987333333334,86.2807999999999,33,18,33.9339873333333,18.862808,0.592259807296717,0.329218105771526,2.62776794697141E-15,1.02523518218434E-07,0.653177334569646,33.84,100.152457804072,,,,,,,,,,,,,,,,
$GNRMC,103647,A,3356.03888,S,1851.76864,E,1.05,0,10921,,,A,V*11,,,,,,,,,3356.03888,1851.76864,0,93.3981333333334,86.2810666666667,33,18,33.9339813333333,18.8628106666667,0.592259702576962,0.32921815231364,3.11433869050039E-15,1.11612520632775E-07,0.711083368951408,34.55,100.152457804072,,,,,,,,,,,,,,,,
$GNRMC,103648,A,3356.03869,S,1851.76877,E,1.05,0,10921,,,A,V*13,,,,,,,,,3356.03869,1851.76877,0,93.3978166666664,86.2812833333332,33,18,33.9339781666667,18.8628128333333,0.592259647308202,0.329218190129107,1.00975328748322E-15,6.355323083788E-08,0.404897633668134,34.96,100.152457804072,,,,,,,,,,,,,,,,
$GNRMC,103649,A,3356.03847,S,1851.76878,E,0.96,0,10921,,,A,V*1A,,,,,,,,,3356.03847,1851.76878,0,93.3974499999999,86.2813000000002,33,18,33.9339745,18.862813,0.592259583312796,0.329218193037989,1.02530917257333E-15,6.40408985749992E-08,0.40800456482132,35.36,100.152457804072,,,,,,,,,,,,,,,,
$GNRMC,103650,A,3356.03832,S,1851.76865,E,0.99,0,10921,,,A,V*13,,,,,,,,,3356.03832,1851.76865,0,93.3972000000002,86.2810833333333,33,18,33.933972,18.8628108333333,0.592259539679565,0.329218155222522,7.22059088480053E-16,5.37423143707099E-08,0.342392284855793,35.71,100.152457804072,,,,,,,,,,,,,,,,
$GNRMC,103651,A,3356.03827,S,1851.76863,E,0.31,0,10921,,,A,V*12,,,,,,,,,3356.03827,1851.76863,0,93.3971166666667,86.2810500000001,33,18,33.9339711666667,18.8628105,0.592259525135155,0.329218149404758,5.87096887642018E-17,1.53244495841387E-08,0.097632068300547,35.80,100.152457804072,,,,,,,,,,,,,,,,
$GNRMC,103652,A,3356.03839,S,1851.76872,E,1.04,0,10921,,,A,V*19,,,,,,,,,3356.03839,1851.76872,0,93.3973166666669,86.2812,33,18,33.9339731666667,18.862812,0.59225956004174,0.329218175584697,4.22567980811158E-16,4.1112916744554E-08,0.261930392579554,36.07,100.152457804072,,,,,,,,,,,,,,,,
$GNRMC,103653,A,3356.03847,S,1851.76888,E,0,0,10921,,,A,V*11,,,,,,,,,3356.03847,1851.76888,0,93.3974499999999,86.2814666666668,33,18,33.9339745,18.8628146666667,0.592259583312796,0.32921822212681,5.08167523397544E-16,4.50851427145371E-08,0.287237444234316,36.35,100.152457804072,,,,,,,,,,,,,,,,
$GNRMC,103654,A,3356.03849,S,1851.76889,E,0,0,10921,,,A,V*19,,,,,,,,,3356.03849,1851.76889,0,93.3974833333332,86.2814833333334,33,18,33.9339748333333,18.8628148333333,0.592259589130561,0.329218225035692,9.91777462157985E-18,6.29849970122405E-09,0.040127741596498,36.39,100.152457804072,,,,,,,,,,,,,,,,
$GNRMC,103655,A,3356.03863,S,1851.76901,E,0,0,10921,,,A,V*11,,,,,,,,,3356.03863,1851.76901,0,93.3977166666667,86.2816833333333,33,18,33.9339771666667,18.8628168333333,0.59225962985491,0.329218259942277,6.24308021301393E-16,4.99723131864593E-08,0.318373607310932,36.71,100.152457804072,,,,,,,,,,,,,,,,
$GNRMC,103656,A,3356.03906,S,1851.76959,E,1.85,0,10921,,,A,V*11,,,,,,,,,3356.03906,1851.76959,0,93.3984333333335,86.2826500000002,33,18,33.9339843333333,18.8628265,0.59225975493684,0.329218428657438,8.80996001812263E-15,1.87722774517347E-07,1.19598179645002,37.91,100.152457804072,,,,,,,,,,,,,,,,
$GNRMC,103657,A,3356.03971,S,1851.76988,E,1.79,0,10921,,,A,V*1F,,,,,,,,,3356.03971,1851.76988,0,93.3995166666667,86.2831333333334,33,18,33.9339951666667,18.8628313333333,0.592259944014175,0.329218513015019,1.01622063919117E-14,2.01615539003438E-07,1.2844925989909,39.19,100.152457804072,,,,,,,,,,,,,,,,
$GNRMC,103658,A,3356.04019,S,1851.77013,E,1.52,0,10921,,,A,V*13,,,,,,,,,3356.04019,1851.77013,0,93.4003166666669,86.2835500000002,33,18,33.9340031666667,18.8628355,0.592260083640516,0.329218585737071,5.78399048950258E-15,1.52105101683048E-07,0.969061602822698,40.16,100.152457804072,,,,,,,,,,,,,,,,
$GNRMC,103659,A,3356.0408,S,1851.77058,E,1.85,0,10921,,,A,V*17,,,,,,,,,3356.0408,1851.77058,0,93.4013333333337,86.2843000000002,33,18,33.9340133333333,18.862843,0.592260261082323,0.329218716636765,1.08201602645271E-14,2.08039998697627E-07,1.32542283170258,41.49,100.152457804072,,,,,,,,,,,,,,,,
$GNRMC,103700,A,3356.04106,S,1851.77079,E,1.2,0,10921,,,A,V*19,,,,,,,,,3356.04106,1851.77079,0,93.4017666666667,86.2846500000001,33,18,33.9340176666667,18.8628465,0.592260336713257,0.329218777723289,2.07218417147922E-15,9.10424993391376E-08,0.580031763289646,42.07,100.152457804072,,,,,,,,,,,,,,,,
$GNRMC,103701,A,3356.0412,S,1851.77117,E,1.23,0,10921,,,A,V*16,,,,,,,,,3356.0412,1851.77117,0,93.4020000000002,86.2852833333333,33,18,33.93402,18.8628528333333,0.592260377437606,0.329218888260808,2.5173394231805E-15,1.003461892287E-07,0.639305571576046,42.71,100.152457804072,,,,,,,,,,,,,,,,
$GNRMC,103702,A,3356.0415,S,1851.7718,E,1.87,0,10921,,,A,V*12,,,,,,,,,3356.0415,1851.7718,0,93.4024999999997,86.2863333333333,33,18,33.934025,18.8628633333333,0.592260464704069,0.329219071520379,7.6834295111612E-15,1.75310347796828E-07,1.11690222581359,43.82,100.152457804072,,,,,,,,,,,,,,,,
$GNRMC,103703,A,3356.04158,S,1851.77267,E,2.27,85.45,10921,,,A,V*24,,,,,,,,,3356.04158,1851.77267,85.45,93.4026333333334,86.2877833333334,33,18,33.9340263333333,18.8628778333333,0.592260487975126,0.329219324593121,1.11571962855159E-14,2.11255260625774E-07,1.34590726544681,45.17,100.152457804072,,,,,,,,,,,,,,,,
$GNRMC,103704,A,3356.04167,S,1851.77323,E,1.76,85.45,10921,,,A,V*29,,,,,,,,,3356.04167,1851.77323,85.45,93.4027833333334,86.2887166666667,33,18,33.9340278333333,18.8628871666667,0.592260514155064,0.329219487490518,4.73792113355542E-15,1.37665117347212E-07,0.87706446261909,46.05,100.152457804072,,,,,,,,,,,,,,,,
$GNRMC,103705,A,3356.04184,S,1851.77365,E,1.23,85.45,10921,,,A,V*27,,,,,,,,,3356.04184,1851.77365,85.45,93.4030666666665,86.2894166666668,33,18,33.9340306666667,18.8628941666667,0.59226056360606,0.329219609663565,3.18004789296821E-15,1.12783826730045E-07,0.718545760097117,46.76,100.152457804072,,,,,,,,,,,,,,,,
$GNRMC,103706,A,3356.04205,S,1851.77386,E,0.93,85.45,10921,,,A,V*29,,,,,,,,,3356.04205,1851.77386,85.45,93.4034166666667,86.2897666666667,33,18,33.9340341666667,18.8628976666667,0.592260624692584,0.329219670750089,1.5750652182739E-15,7.9374182660961E-08,0.505692917732983,47.27,100.152457804072,,,,,,,,,,,,,,,,
$GNRMC,103707,A,3356.04198,S,1851.77418,E,0.94,85.45,10921,,,A,V*28,,,,,,,,,3356.04198,1851.77418,85.45,93.4032999999999,86.2902999999998,33,18,33.934033,18.862903,0.592260604330409,0.329219763834316,1.59478046393924E-15,7.98694050044007E-08,0.508847979283037,47.78,100.152457804072,,,,,,,,,,,,,,,,
$GNRMC,103708,A,3356.04185,S,1851.77466,E,1.3,85.45,10921,,,A,V*2D,,,,,,,,,3356.04185,1851.77466,85.45,93.4030833333334,86.2911000000001,33,18,33.9340308333333,18.862911,0.592260566514942,0.329219903460656,3.71253585040358E-15,1.2186116445207E-07,0.776377478724136,48.56,100.152457804072,,,,,,,,,,,,,,,,
$GNRMC,103709,A,3356.04171,S,1851.77513,E,1.37,85.45,10921,,,A,V*23,,,,,,,,,3356.04171,1851.77513,85.45,93.4028499999999,86.2918833333333,33,18,33.9340285,18.8629188333333,0.592260525790593,0.329220040178114,3.63131490001303E-15,1.20520784929622E-07,0.767837920786621,49.32,100.152457804072,,,,,,,,,,,,,,,,
$GNRMC,103710,A,3356.0417,S,1851.77559,E,0.89,85.45,10921,,,A,V*20,,,,,,,,,3356.0417,1851.77559,85.45,93.4028333333337,86.2926499999999,33,18,33.9340283333333,18.8629265,0.592260522881711,0.32922017398669,3.08338770461809E-15,1.11056520828236E-07,0.707541094196691,50.03,100.152457804072,,,,,,,,,,,,,,,,
$GNRMC,103711,A,3356.04198,S,1851.776,E,1.74,85.45,10921,,,A,V*2B,,,,,,,,,3356.04198,1851.776,85.45,93.4032999999999,86.2933333333335,33,18,33.934033,18.8629333333333,0.592260604330409,0.329220293250856,4.10630742960219E-15,1.28160952393499E-07,0.816513427698984,50.85,100.152457804072,,,,,,,,,,,,,,,,
$GNRMC,103712,A,3356.04235,S,1851.77666,E,2.34,119.38,10921,,,A,V*15,,,,,,,,,3356.04235,1851.77666,119.38,93.403916666667,86.2944333333333,33,18,33.9340391666667,18.8629443333333,0.592260711959046,0.329220485237073,9.23909041191966E-15,1.92240374655479E-07,1.22476342693005,52.07,100.152457804072,,,,,,,,,,,,,,,,
$GNRMC,103713,A,3356.04245,S,1851.77753,E,2.48,84.42,10921,,,A,V*27,,,,,,,,,3356.04245,1851.77753,84.42,93.4040833333332,86.2958833333335,33,18,33.9340408333333,18.8629588333333,0.592260741047867,0.329220738309815,1.12333469187759E-14,2.11974969454188E-07,1.35049253039263,53.42,100.152457804072,,,,,,,,,,,,,,,,
$GNRMC,103714,A,3356.04251,S,1851.77822,E,2,85.38,10921,,,A,V*2C,,,,,,,,,3356.04251,1851.77822,85.38,93.4041833333337,86.2970333333332,33,18,33.9340418333333,18.8629703333333,0.59226075850116,0.329220939022679,7.00901493537998E-15,1.67439719724801E-07,1.06675845436671,54.49,100.152457804072,,,,,,,,,,,,,,,,
$GNRMC,103715,A,3356.04254,S,1851.77879,E,1.89,85.38,10921,,,A,V*24,,,,,,,,,3356.04254,1851.77879,85.38,93.4042333333332,86.2979833333334,33,18,33.9340423333333,18.8629798333333,0.592260767227806,0.329221104828958,4.75015886108434E-15,1.37842792500505E-07,0.87819643102072,55.37,100.152457804072,,,,,,,,,,,,,,,,
$GNRMC,103716,A,3356.04241,S,1851.77949,E,2.36,67.56,10921,,,A,V*22,,,,,,,,,3356.04241,1851.77949,67.56,93.4040166666667,86.2991499999998,33,18,33.9340401666667,18.8629915,0.592260729412339,0.329221308450704,7.49277163698803E-15,1.73121594689837E-07,1.10295767976895,56.47,100.152457804072,,,,,,,,,,,,,,,,
$GNRMC,103717,A,3356.04237,S,1851.78014,E,2.26,77.85,10921,,,A,V*22,,,,,,,,,3356.04237,1851.78014,77.85,93.4039500000002,86.3002333333334,33,18,33.9340395,18.8630023333333,0.59226071777681,0.32922149752804,6.18619609068947E-15,1.57304749968836E-07,1.00218856205145,57.47,100.152457804072,,,,,,,,,,,,,,,,
$GNRMC,103718,A,3356.04237,S,1851.78087,E,1.71,77.85,10921,,,A,V*26,,,,,,,,,3356.04237,1851.78087,77.85,93.4039500000002,86.3014500000001,33,18,33.9340395,18.8630145,0.59226071777681,0.329221709876432,7.75996967652961E-15,1.76181380134561E-07,1.12245157283729,58.59,100.152457804072,,,,,,,,,,,,,,,,
$GNRMC,103719,A,3356.04259,S,1851.78142,E,1.53,77.85,10921,,,A,V*27,,,,,,,,,3356.04259,1851.78142,77.85,93.4043166666667,86.3023666666667,33,18,33.9340431666667,18.8630236666667,0.592260781772216,0.329221869864947,5.42878961061388E-15,1.47360640750696E-07,0.938834642222682,59.53,100.152457804072,,,,,,,,,,,,,,,,
$GNRMC,103720,A,3356.04274,S,1851.78182,E,1.01,77.85,10921,,,A,V*29,,,,,,,,,3356.04274,1851.78182,77.85,93.4045666666664,86.3030333333332,33,18,33.9340456666667,18.8630303333333,0.592260825405447,0.32922198622023,2.80584837846089E-15,1.05940518753891E-07,0.67494704498104,60.21,100.152457804072,,,,,,,,,,,,,,,,
$GNRMC,103721,A,3356.04273,S,1851.78223,E,1.28,77.85,10921,,,A,V*2C,,,,,,,,,3356.04273,1851.78223,77.85,93.4045500000002,86.3037166666667,33,18,33.9340455,18.8630371666667,0.592260822496566,0.329222105484396,2.4499493574311E-15,9.89939262264327E-08,0.630690303988603,60.84,100.152457804072,,,,,,,,,,,,,,,,
$GNRMC,103722,A,3356.04264,S,1851.7828,E,1.44,77.85,10921,,,A,V*2A,,,,,,,,,3356.04264,1851.7828,77.85,93.4044000000002,86.3046666666666,33,18,33.934044,18.8630466666667,0.592260796316627,0.329222271290675,4.90246727367153E-15,1.40035242330944E-07,0.892164528890443,61.73,100.152457804072,,,,,,,,,,,,,,,,
$GNRMC,103723,A,3356.04252,S,1851.78342,E,1.7,77.85,10921,,,A,V*26,,,,,,,,,3356.04252,1851.78342,77.85,93.4041999999999,86.3057,33,18,33.934042,18.863057,0.592260761410042,0.329222451641364,5.90216311247944E-15,1.53651073702457E-07,0.978910990558352,62.71,100.152457804072,,,,,,,,,,,,,,,,
$GNRMC,103724,A,3356.04261,S,1851.78433,E,3.24,101.26,10921,,,A,V*1A,,,,,,,,,3356.04261,1851.78433,101.26,93.40435,86.3072166666666,33,18,33.9340435,18.8630721666667,0.59226078758998,0.329222716349634,1.22299519062533E-14,2.21178225928804E-07,1.40912647739241,64.12,100.152457804072,,,,,,,,,,,,,,,,
$GNRMC,103725,A,3356.04272,S,1851.78543,E,2.93,93.78,10921,,,A,V*23,,,,,,,,,3356.04272,1851.78543,93.78,93.4045333333332,86.3090499999998,33,18,33.9340453333333,18.8630905,0.592260819587683,0.329223036326663,1.78757084474364E-14,2.67400137976303E-07,1.70360627904703,65.82,100.152457804072,,,,,,,,,,,,,,,,
$GNRMC,103726,A,3356.0427,S,1851.78617,E,1.5,93.78,10921,,,A,V*2C,,,,,,,,,3356.0427,1851.78617,93.78,93.4044999999999,86.3102833333335,33,18,33.934045,18.8631028333333,0.592260813769919,0.329223251583938,7.98248830017818E-15,1.78689544184076E-07,1.13843108599675,66.96,100.152457804072,,,,,,,,,,,,,,,,
$GNRMC,103727,A,3356.04259,S,1851.78691,E,2.12,81.04,10921,,,A,V*25,,,,,,,,,3356.04259,1851.78691,81.04,93.4043166666667,86.3115166666667,33,18,33.9340431666667,18.8631151666667,0.592260781772216,0.329223466841212,8.22999014633747E-15,1.81438586263644E-07,1.15594523308568,68.12,100.152457804072,,,,,,,,,,,,,,,,
$GNRMC,103728,A,3356.0425,S,1851.78768,E,1.89,81.04,10921,,,A,V*25,,,,,,,,,3356.0425,1851.78768,81.04,93.4041666666667,86.3127999999998,33,18,33.9340416666667,18.863128,0.592260755592277,0.329223690825133,8.80502285358766E-15,1.87670166553852E-07,1.19564663111459,69.31,100.152457804072,,,,,,,,,,,,,,,,
$GNRMC,103729,A,3356.04247,S,1851.78836,E,1.75,81.04,10921,,,A,V*25,,,,,,,,,3356.04247,1851.78836,81.04,93.4041166666665,86.3139333333334,33,18,33.9340411666667,18.8631393333333,0.592260746865631,0.329223888629115,6.75240285236896E-15,1.6434601123689E-07,1.04704843759022,70.36,100.152457804072,,,,,,,,,,,,,,,,
$GNRMC,103730,A,3356.04253,S,1851.7891,E,2.19,107.35,10921,,,A,V*19,,,,,,,,,3356.04253,1851.7891,107.35,93.404216666667,86.3151666666666,33,18,33.9340421666667,18.8631516666667,0.592260764318924,0.329224103886389,8.05018170803159E-15,1.79445609676376E-07,1.14324797924819,71.50,100.152457804072,,,,,,,,,,,,,,,,
$GNRMC,103731,A,3356.04259,S,1851.79005,E,3.22,88.2,10921,,,A,V*25,,,,,,,,,3356.04259,1851.79005,88.2,93.4043166666667,86.3167500000001,33,18,33.9340431666667,18.8631675,0.592260781772216,0.329224380230187,1.32181549350839E-14,2.29940469992422E-07,1.46495073432172,72.97,100.152457804072,,,,,,,,,,,,,,,,
$GNRMC,103732,A,3356.04251,S,1851.79111,E,2.86,76.91,10921,,,A,V*2E,,,,,,,,,3356.04251,1851.79111,76.91,93.4041833333337,86.3185166666665,33,18,33.9340418333333,18.8631851666667,0.59226075850116,0.329224688571689,1.64969942815633E-14,2.56881251021272E-07,1.63659045025652,74.60,100.152457804072,,,,,,,,,,,,,,,,
$GNRMC,103733,A,3356.04222,S,1851.79189,E,2.26,59.52,10921,,,A,V*22,,,,,,,,,3356.04222,1851.79189,59.52,93.4036999999997,86.3198166666666,33,18,33.934037,18.8631981666667,0.592260674143579,0.329224915464491,1.06384340274227E-14,2.06285569320035E-07,1.31424536213794,75.92,100.152457804072,,,,,,,,,,,,,,,,
$GNRMC,103734,A,3356.04199,S,1851.7925,E,1.51,59.52,10921,,,A,V*22,,,,,,,,,3356.04199,1851.7925,59.52,93.403316666667,86.3208333333334,33,18,33.9340331666667,18.8632083333333,0.592260607239291,0.329225092906299,6.53748281478328E-15,1.6170940374367E-07,1.03025061125092,76.95,100.152457804072,,,,,,,,,,,,,,,,
$GNRMC,103735,A,3356.04189,S,1851.79315,E,1.27,59.52,10921,,,A,V*23,,,,,,,,,3356.04189,1851.79315,59.52,93.4031499999999,86.3219166666666,33,18,33.9340315,18.8632191666667,0.59226057815047,0.329225281983634,6.36389067327634E-15,1.59547994951693E-07,1.01648027583724,77.97,100.152457804072,,,,,,,,,,,,,,,,
$GNRMC,103736,A,3356.0418,S,1851.79377,E,1.98,73.22,10921,,,A,V*26,,,,,,,,,3356.0418,1851.79377,73.22,93.403,86.32295,33,18,33.93403,18.8632295,0.592260551970531,0.329225462334324,5.76889459631286E-15,1.51906479075948E-07,0.967796178192866,78.93,100.152457804072,,,,,,,,,,,,,,,,
$GNRMC,103737,A,3356.04178,S,1851.79392,E,0,73.22,10921,,,A,V*2B,,,,,,,,,3356.04178,1851.79392,73.22,93.4029666666667,86.3232000000001,33,18,33.9340296666667,18.863232,0.592260546152767,0.329225505967555,3.36101597463576E-16,3.66661477367653E-08,0.233600027230932,79.17,100.152457804072,,,,,,,,,,,,,,,,
$GNRMC,103738,A,3356.04179,S,1851.79403,E,0,73.22,10921,,,A,V*2A,,,,,,,,,3356.04179,1851.79403,73.22,93.4029833333337,86.3233833333334,33,18,33.9340298333333,18.8632338333333,0.592260549061649,0.329225537965258,1.78312911178213E-16,2.67067715142219E-08,0.170148841317108,79.34,100.152457804072,,,,,,,,,,,,,,,,
$GNRMC,103739,A,3356.04181,S,1851.79415,E,0,73.22,10921,,,A,V*2B,,,,,,,,,3356.04181,1851.79415,73.22,93.4030166666669,86.3235833333333,33,18,33.9340301666667,18.8632358333333,0.592260554879413,0.329225572871843,2.18151195338926E-16,2.95398845860254E-08,0.188198604697568,79.53,100.152457804072,,,,,,,,,,,,,,,,
$GNRMC,103740,A,3356.04169,S,1851.79496,E,2.49,75.5,10921,,,A,V*24,,,,,,,,,3356.04169,1851.79496,75.5,93.4028166666667,86.3249333333333,33,18,33.9340281666667,18.8632493333333,0.592260519972828,0.329225808491292,9.85860004394888E-15,1.9858096629787E-07,1.26515933628373,80.79,100.152457804072,,,,,,,,,,,,,,,,
$GNRMC,103741,A,3356.04181,S,1851.79557,E,1.46,75.5,10921,,,A,V*23,,,,,,,,,3356.04181,1851.79557,75.5,93.4030166666669,86.32595,33,18,33.9340301666667,18.8632595,0.592260554879413,0.329225985933099,5.72305505727029E-15,1.51301752234008E-07,0.963943463482866,81.75,100.152457804072,,,,,,,,,,,,,,,,
$GNRMC,103742,A,3356.0419,S,1851.79617,E,1.35,75.5,10921,,,A,V*23,,,,,,,,,3356.0419,1851.79617,75.5,93.403166666667,86.3269500000001,33,18,33.9340316666667,18.8632695,0.592260581059352,0.329226160466025,5.41358720676759E-15,1.47154166869547E-07,0.937519197125882,82.69,100.152457804072,,,,,,,,,,,,,,,,
$GNRMC,103743,A,3356.04165,S,1851.79669,E,1.54,75.5,10921,,,A,V*26,,,,,,,,,3356.04165,1851.79669,75.5,93.4027500000002,86.3278166666665,33,18,33.9340275,18.8632781666667,0.5922605083373,0.329226311727893,5.25962898036207E-15,1.45046599137823E-07,0.92409188310707,83.62,100.152457804072,,,,,,,,,,,,,,,,
$GNRMC,103744,A,3356.04133,S,1851.7972,E,1.56,75.5,10921,,,A,V*2C,,,,,,,,,3356.04133,1851.7972,75.5,93.4022166666667,86.3286666666666,33,18,33.9340221666667,18.8632866666667,0.592260415253073,0.329226460080879,5.95368719558399E-15,1.54320279880306E-07,0.98317450311743,84.60,100.152457804072,,,,,,,,,,,,,,,,
$GNRMC,103745,A,3356.04111,S,1851.79812,E,2.47,75.6,10921,,,A,V*23,,,,,,,,,3356.04111,1851.79812,75.6,93.4018500000002,86.3301999999999,33,18,33.9340185,18.863302,0.592260351257667,0.329226727698031,1.33489445368358E-14,2.3107526511365E-07,1.47218051403906,86.07,100.152457804072,,,,,,,,,,,,,,,,
$GNRMC,103746,A,3356.04096,S,1851.79929,E,2.49,78.29,10921,,,A,V*29,,,,,,,,,3356.04096,1851.79929,78.29,93.4015999999997,86.3321499999999,33,18,33.934016,18.8633215,0.592260307624436,0.329227068037235,2.04095883572718E-14,2.85724261183904E-07,1.82034926800265,87.89,100.152457804072,,,,,,,,,,,,,,,,
$GNRMC,103747,A,3356.04099,S,1851.8002,E,2.33,95.84,10921,,,A,V*28,,,,,,,,,3356.04099,1851.8002,95.84,93.40165,86.3336666666665,33,18,33.9340165,18.8633366666667,0.592260316351082,0.329227332745505,1.20776507048673E-14,2.19796730684215E-07,1.40032497118913,89.29,100.152457804072,,,,,,,,,,,,,,,,
$GNRMC,103748,A,3356.04124,S,1851.80089,E,1.99,113.26,10921,,,A,V*17,,,,,,,,,3356.04124,1851.80089,113.26,93.4020666666667,86.3348166666667,33,18,33.9340206666667,18.8633481666667,0.592260389073135,0.329227533458369,8.25498850187755E-15,1.81713934544135E-07,1.15769947698069,90.45,100.152457804072,,,,,,,,,,,,,,,,
$GNRMC,103749,A,3356.04138,S,1851.80165,E,1.61,113.26,10921,,,A,V*1F,,,,,,,,,3356.04138,1851.80165,113.26,93.4023000000002,86.3360833333335,33,18,33.934023,18.8633608333333,0.592260429797484,0.329227754533408,8.82550264784787E-15,1.87888292853471E-07,1.19703631376946,91.65,100.152457804072,,,,,,,,,,,,,,,,
$GNRMC,103750,A,3356.04141,S,1851.80198,E,0,113.26,10921,,,A,V*1D,,,,,,,,,3356.04141,1851.80198,113.26,93.4023499999997,86.3366333333333,33,18,33.9340235,18.8633663333333,0.59226043852413,0.329227850526517,1.60481644269081E-15,8.01203205857494E-08,0.51044656245181,92.16,100.152457804072,,,,,,,,,,,,,,,,
$GNRMC,103751,A,3356.04146,S,1851.80217,E,0,113.26,10921,,,A,V*1F,,,,,,,,,3356.04146,1851.80217,113.26,93.4024333333332,86.3369499999999,33,18,33.9340243333333,18.8633695,0.592260453068541,0.329227905795276,5.78565223960578E-16,4.81067655932335E-08,0.30648820359449,92.46,100.152457804072,,,,,,,,,,,,,,,,
$GNRMC,103752,A,3356.04152,S,1851.80235,E,0,113.26,10921,,,A,V*19,,,,,,,,,3356.04152,1851.80235,113.26,93.4025333333337,86.3372499999999,33,18,33.9340253333333,18.8633725,0.592260470521833,0.329227958155154,5.47956015168386E-16,4.68169206662884E-08,0.298270601564924,92.76,100.152457804072,,,,,,,,,,,,,,,,
$GNRMC,103753,A,3356.04156,S,1851.80282,E,0.91,113.26,10921,,,A,V*18,,,,,,,,,3356.04156,1851.80282,113.26,93.4026000000002,86.3380333333335,33,18,33.934026,18.8633803333333,0.592260482157361,0.329228094872612,3.25054343227034E-15,1.14027074544081E-07,0.726466491920339,93.49,100.152457804072,,,,,,,,,,,,,,,,
$GNRMC,103754,A,3356.04155,S,1851.80346,E,0.91,113.26,10921,,,A,V*15,,,,,,,,,3356.04155,1851.80346,113.26,93.4025833333332,86.3391000000001,33,18,33.9340258333333,18.863391,0.592260479248479,0.329228281041066,5.96662016566596E-15,1.54487801015691E-07,0.98424178027097,94.47,100.152457804072,,,,,,,,,,,,,,,,
$GNRMC,103755,A,3356.04157,S,1851.80408,E,0.94,113.26,10921,,,A,V*1E,,,,,,,,,3356.04157,1851.80408,113.26,93.4026166666664,86.3401333333335,33,18,33.9340261666667,18.8634013333333,0.592260485066243,0.329228461391755,5.606009522097E-15,1.49746579554887E-07,0.954035458344184,95.43,100.152457804072,,,,,,,,,,,,,,,,
$GNRMC,103756,A,3356.04161,S,1851.80489,E,1.63,113.26,10921,,,A,V*18,,,,,,,,,3356.04161,1851.80489,113.26,93.4026833333337,86.3414833333331,33,18,33.9340268333333,18.8634148333333,0.592260496701772,0.329228697011204,9.58782958901355E-15,1.95834926292667E-07,1.24766431541058,96.67,100.152457804072,,,,,,,,,,,,,,,,
$GNRMC,103757,A,3356.04154,S,1851.80589,E,2.15,81.43,10921,,,A,V*25,,,,,,,,,3356.04154,1851.80589,81.43,93.4025666666669,86.3431500000002,33,18,33.9340256666667,18.8634315,0.592260476339597,0.329228987899413,1.46654336561733E-14,2.42201846864745E-07,1.54306796637529,98.22,100.152457804072,,,,,,,,,,,,,,,,
$GNRMC,103758,A,3356.0414,S,1851.80702,E,1.95,73.71,10921,,,A,V*29,,,,,,,,,3356.0414,1851.80702,73.71,93.4023333333334,86.3450333333333,33,18,33.9340233333333,18.8634503333333,0.592260435615248,0.329229316603088,1.90085546642651E-14,2.75743030115107E-07,1.75675884486335,99.97,100.152457804072,,,,,,,,,,,,,,,,
$GNRMC,103759,A,3356.0414,S,1851.80807,E,2.19,92.64,10921,,,A,V*2E,,,,,,,,,3356.0414,1851.80807,92.64,93.4023333333334,86.3467833333334,33,18,33.9340233333333,18.8634678333333,0.592260435615248,0.329229622035708,1.60543625738812E-14,2.53411622258185E-07,1.6144854454069,101.59,100.152457804072,,,,,,,,,,,,,,,,
$GNRMC,103800,A,3356.04154,S,1851.80916,E,1.87,92.64,10921,,,A,V*2D,,,,,,,,,3356.04154,1851.80916,92.64,93.4025666666669,86.3486,33,18,33.9340256666667,18.863486,0.592260476339597,0.329229939103855,1.77154686291867E-14,2.66198937858038E-07,1.69595343309356,103.28,100.152457804072,,,,,,,,,,,,,,,,
$GNRMC,103801,A,3356.04172,S,1851.81022,E,2.35,98.45,10921,,,A,V*24,,,,,,,,,3356.04172,1851.81022,98.45,93.402866666667,86.3503666666668,33,18,33.9340286666667,18.8635036666667,0.592260528699475,0.329230247445356,1.70470038486495E-14,2.61128350422926E-07,1.66364872054446,104.95,100.152457804072,,,,,,,,,,,,,,,,
$GNRMC,103802,A,3356.04194,S,1851.81135,E,1.92,98.45,10921,,,A,V*26,,,,,,,,,3356.04194,1851.81135,98.45,93.4032333333334,86.3522499999999,33,18,33.9340323333333,18.8635225,0.592260592694881,0.329230576149032,1.96177868756944E-14,2.8012702030111E-07,1.78468924633837,106.73,100.152457804072,,,,,,,,,,,,,,,,
$GNRMC,103803,A,3356.0421,S,1851.8123,E,1.65,98.45,10921,,,A,V*26,,,,,,,,,3356.0421,1851.8123,98.45,93.4035000000002,86.3538333333334,33,18,33.934035,18.8635383333333,0.592260639236994,0.32923085249283,1.36835454433017E-14,2.33953375212257E-07,1.49051695347729,108.22,100.152457804072,,,,,,,,,,,,,,,,
$GNRMC,103804,A,3356.04211,S,1851.81338,E,2.57,83.64,10921,,,A,V*22,,,,,,,,,3356.04211,1851.81338,83.64,93.4035166666665,86.3556333333334,33,18,33.9340351666667,18.8635563333333,0.592260642145876,0.329231166652096,1.69869710320968E-14,2.60668149432161E-07,1.6607167800323,109.88,100.152457804072,,,,,,,,,,,,,,,,
$GNRMC,103805,A,3356.04195,S,1851.81448,E,2.43,79.12,10921,,,A,V*2D,,,,,,,,,3356.04195,1851.81448,79.12,93.4032499999997,86.3574666666667,33,18,33.9340325,18.8635746666667,0.592260595603763,0.329231486629125,1.8161291668916E-14,2.69527673302139E-07,1.71716080660793,111.60,100.152457804072,,,,,,,,,,,,,,,,
$GNRMC,103806,A,3356.04184,S,1851.81537,E,1.17,79.12,10921,,,A,V*25,,,,,,,,,3356.04184,1851.81537,79.12,93.4030666666665,86.3589500000001,33,18,33.9340306666667,18.8635895,0.59226056360606,0.329231745519631,1.17903470292901E-14,2.17166728844823E-07,1.38356922947037,112.99,100.152457804072,,,,,,,,,,,,,,,,
$GNRMC,103807,A,3356.04174,S,1851.81611,E,1.03,79.12,10921,,,A,V*29,,,,,,,,,3356.04174,1851.81611,79.12,93.4029000000002,86.3601833333333,33,18,33.934029,18.8636018333333,0.592260534517239,0.329231960776905,8.1855694465865E-15,1.80948273786588E-07,1.15282145229435,114.14,100.152457804072,,,,,,,,,,,,,,,,
$GNRMC,103808,A,3356.04173,S,1851.81702,E,1.69,79.12,10921,,,A,V*2E,,,,,,,,,3356.04173,1851.81702,79.12,93.4028833333332,86.3616999999999,33,18,33.9340288333333,18.863617,0.592260531608357,0.329232225485175,1.20607239230259E-14,2.196426545371E-07,1.39934335205587,115.54,100.152457804072,,,,,,,,,,,,,,,,
$GNRMC,103809,A,3356.04193,S,1851.81801,E,2.24,107.98,10921,,,A,V*1D,,,,,,,,,3356.04193,1851.81801,107.98,93.4032166666664,86.3633499999999,33,18,33.9340321666667,18.8636335,0.592260589785998,0.329232513464502,1.51181577778418E-14,2.45911836053833E-07,1.56670430749897,117.10,100.152457804072,,,,,,,,,,,,,,,,
$GNRMC,103810,A,3356.04202,S,1851.81908,E,2.04,81.99,10921,,,A,V*2A,,,,,,,,,3356.04202,1851.81908,81.99,93.4033666666664,86.3651333333333,33,18,33.9340336666667,18.8636513333333,0.592260615965937,0.329232824714885,1.68431255966008E-14,2.5956213588735E-07,1.65367036773831,118.76,100.152457804072,,,,,,,,,,,,,,,,
$GNRMC,103811,A,3356.04196,S,1851.81999,E,1.4,81.99,10921,,,A,V*2E,,,,,,,,,3356.04196,1851.81999,81.99,93.4032666666667,86.3666499999999,33,18,33.9340326666667,18.8636665,0.592260598512645,0.329233089423155,1.21347616800286E-14,2.20315788631035E-07,1.40363188936832,120.16,100.152457804072,,,,,,,,,,,,,,,,
$GNRMC,103812,A,3356.04199,S,1851.8204,E,0,81.99,10921,,,A,V*29,,,,,,,,,3356.04199,1851.8204,81.99,93.403316666667,86.3673333333334,33,18,33.9340331666667,18.8636733333333,0.592260607239291,0.32923320868732,2.4668732742439E-15,9.93352560623648E-08,0.632864916373326,120.79,100.152457804072,,,,,,,,,,,,,,,,
$GNRMC,103813,A,3356.04203,S,1851.82071,E,0,81.99,10921,,,A,V*2A,,,,,,,,,3356.04203,1851.82071,81.99,93.4033833333335,86.3678499999999,33,18,33.9340338333333,18.8636785,0.59226061887482,0.329233298862665,1.43323311423908E-15,7.57161307579587E-08,0.482387469058955,121.28,100.152457804072,,,,,,,,,,,,,,,,
$GNRMC,103814,A,3356.04205,S,1851.82108,E,0,81.99,10921,,,A,V*24,,,,,,,,,3356.04205,1851.82108,81.99,93.4034166666667,86.3684666666666,33,18,33.9340341666667,18.8636846666667,0.592260624692584,0.329233406491302,2.00196879100095E-15,8.94867317763019E-08,0.570119968146819,121.85,100.152457804072,,,,,,,,,,,,,,,,
$GNRMC,103815,A,3356.0417,S,1851.82187,E,2.54,43,10921,,,A,V*2E,,,,,,,,,3356.0417,1851.82187,43,93.4028333333337,86.3697833333333,33,18,33.9340283333333,18.8636978333333,0.592260522881711,0.329233636292987,1.16793687446078E-14,2.16142256346212E-07,1.37704231518171,123.22,100.152457804072,,,,,,,,,,,,,,,,
$GNRMC,103816,A,3356.04131,S,1851.82276,E,1.23,43,10921,,,A,V*26,,,,,,,,,3356.04131,1851.82276,43,93.4021833333334,86.3712666666667,33,18,33.9340218333333,18.8637126666667,0.592260409435309,0.329233895183493,1.47519070566355E-14,2.42914857978145E-07,1.54761056017876,124.77,100.152457804072,,,,,,,,,,,,,,,,
$GNRMC,103817,A,3356.04105,S,1851.82351,E,1.22,43,10921,,,A,V*25,,,,,,,,,3356.04105,1851.82351,43,93.4017499999997,86.3725166666666,33,18,33.9340175,18.8637251666667,0.592260333804375,0.329234113349649,9.62101156992882E-15,1.96173510647374E-07,1.24982143633442,126.02,100.152457804072,,,,,,,,,,,,,,,,
$GNRMC,103818,A,3356.04071,S,1851.82443,E,1.5,43,10921,,,A,V*29,,,,,,,,,3356.04071,1851.82443,43,93.4011833333337,86.3740499999998,33,18,33.9340118333333,18.8637405,0.592260234902384,0.329234380966801,1.47704941363855E-14,2.43067843503706E-07,1.54858523096211,127.57,100.152457804072,,,,,,,,,,,,,,,,
$GNRMC,103819,A,3356.04076,S,1851.82524,E,2.18,112.45,10921,,,A,V*14,,,,,,,,,3356.04076,1851.82524,112.45,93.4012666666665,86.3753999999998,33,18,33.9340126666667,18.863754,0.592260249446794,0.32923461658625,9.60687138314456E-15,1.96029297638334E-07,1.24890265525382,128.82,100.152457804072,,,,,,,,,,,,,,,,
$GNRMC,103820,A,3356.04054,S,1851.82633,E,1.75,112.45,10921,,,A,V*13,,,,,,,,,3356.04054,1851.82633,112.45,93.4008999999999,86.3772166666668,33,18,33.934009,18.8637721666667,0.592260185451388,0.329234933654398,1.83247090299585E-14,2.70737577960346E-07,1.72486910918536,130.54,100.152457804072,,,,,,,,,,,,,,,,
$GNRMC,103821,A,3356.04023,S,1851.82741,E,2.5,61.03,10921,,,A,V*25,,,,,,,,,3356.04023,1851.82741,61.03,93.4003833333334,86.3790166666668,33,18,33.9340038333333,18.8637901666667,0.592260095276044,0.329235247813663,1.90177652589702E-14,2.75809827663703E-07,1.75718441204545,132.30,100.152457804072,,,,,,,,,,,,,,,,
$GNRMC,103822,A,3356.03985,S,1851.82834,E,1.57,61.03,10921,,,A,V*2D,,,,,,,,,3356.03985,1851.82834,61.03,93.3997500000002,86.3805666666667,33,18,33.9339975,18.8638056666667,0.592259984738525,0.329235518339697,1.56491261123079E-14,2.50192934451059E-07,1.5939791853877,133.89,100.152457804072,,,,,,,,,,,,,,,,
$GNRMC,103823,A,3356.03941,S,1851.82932,E,2.21,41.87,10921,,,A,V*2F,,,,,,,,,3356.03941,1851.82932,41.87,93.3990166666665,86.3822000000001,33,18,33.9339901666667,18.863822,0.592259856747713,0.329235803410142,1.80805552895015E-14,2.68927910708439E-07,1.71333971912347,135.61,100.152457804072,,,,,,,,,,,,,,,,
$GNRMC,103824,A,3356.03884,S,1851.83042,E,2.6,39.29,10921,,,A,V*21,,,,,,,,,3356.03884,1851.83042,39.29,93.3980666666669,86.3840333333333,33,18,33.9339806666667,18.8638403333333,0.592259690941434,0.329236123387171,2.44927001404435E-14,3.13002876283549E-07,1.99414132480249,137.60,100.152457804072,,,,,,,,,,,,,,,,
$GNRMC,103825,A,3356.03862,S,1851.8315,E,2.11,80.99,10921,,,A,V*25,,,,,,,,,3356.03862,1851.8315,80.99,93.3976999999997,86.3858333333333,33,18,33.933977,18.8638583333333,0.592259626946028,0.329236437546437,1.80087310687156E-14,2.68393226954152E-07,1.7099332489249,139.31,100.152457804072,,,,,,,,,,,,,,,,
$GNRMC,103826,A,3356.03843,S,1851.83281,E,2.16,72.06,10921,,,A,V*26,,,,,,,,,3356.03843,1851.83281,72.06,93.3973833333334,86.3880166666668,33,18,33.9339738333333,18.8638801666667,0.592259571677268,0.32923681860999,2.5753157919404E-14,3.20955809540218E-07,2.04480946258073,141.36,100.152457804072,,,,,,,,,,,,,,,,
$GNRMC,103827,A,3356.03822,S,1851.83432,E,2.45,79.34,10921,,,A,V*22,,,,,,,,,3356.03822,1851.83432,79.34,93.3970333333332,86.3905333333332,33,18,33.9339703333333,18.8639053333333,0.592259510590744,0.329237257851185,3.41352456263975E-14,3.69514522726227E-07,2.3541770242888,143.71,100.152457804072,,,,,,,,,,,,,,,,
$GNRMC,103828,A,3356.03812,S,1851.83577,E,2.14,76.83,10921,,,A,V*29,,,,,,,,,3356.03812,1851.83577,76.83,93.3968666666669,86.3929499999999,33,18,33.9339686666667,18.8639295,0.592259481501924,0.329237679639088,3.08277212587957E-14,3.51156496501466E-07,2.23721803921084,145.95,100.152457804072,,,,,,,,,,,,,,,,
$GNRMC,103829,A,3356.03797,S,1851.83738,E,2.34,66.55,10921,,,A,V*2B,,,,,,,,,3356.03797,1851.83738,66.55,93.3966166666664,86.3956333333332,33,18,33.9339661666667,18.8639563333333,0.592259437868692,0.329238147969104,3.82216045087674E-14,3.91006928372211E-07,2.49110514065936,148.44,100.152457804072,,,,,,,,,,,,,,,,
$GNRMC,103830,A,3356.03799,S,1851.8386,E,1.98,84.02,10921,,,A,V*24,,,,,,,,,3356.03799,1851.8386,84.02,93.3966499999997,86.3976666666667,33,18,33.9339665,18.8639766666667,0.592259443686456,0.329238502852718,2.16822441275075E-14,2.94497837869874E-07,1.87624572506897,150.32,100.152457804072,,,,,,,,,,,,,,,,
$GNRMC,103831,A,3356.03826,S,1851.83991,E,3.04,116.17,10921,,,A,V*18,,,,,,,,,3356.03826,1851.83991,116.17,93.3970999999997,86.3998499999999,33,18,33.933971,18.8639985,0.592259522226273,0.329238883916271,2.65316285625087E-14,3.25770646698004E-07,2.07548479011298,152.39,100.152457804072,,,,,,,,,,,,,,,,
$GNRMC,103832,A,3356.03868,S,1851.84114,E,2.22,118.88,10921,,,A,V*1E,,,,,,,,,3356.03868,1851.84114,118.88,93.3978000000002,86.4019,33,18,33.933978,18.864019,0.59225964439932,0.329239241708768,2.57621057979736E-14,3.2101156239596E-07,2.04516466402466,154.44,100.152457804072,,,,,,,,,,,,,,,,
$GNRMC,103833,A,3356.03873,S,1851.84241,E,2.06,70.14,10921,,,A,V*2A,,,,,,,,,3356.03873,1851.84241,70.14,93.3978833333337,86.4040166666666,33,18,33.9339788333333,18.8640401666667,0.592259658943731,0.329239611136793,2.35396048814778E-14,3.06852439335117E-07,1.95495689100403,156.39,100.152457804072,,,,,,,,,,,,,,,,
$GNRMC,103834,A,3356.0385,S,1851.84359,E,1.7,70.14,10921,,,A,V*26,,,,,,,,,3356.0385,1851.84359,70.14,93.3975000000002,86.4059833333333,33,18,33.933975,18.8640598333333,0.592259592039443,0.329239954384879,2.13948906619283E-14,2.92539847965562E-07,1.86377137138859,158.26,100.152457804072,,,,,,,,,,,,,,,,
$GNRMC,103835,A,3356.03858,S,1851.84478,E,1.84,70.14,10921,,,A,V*20,,,,,,,,,3356.03858,1851.84478,70.14,93.3976333333332,86.4079666666665,33,18,33.9339763333333,18.8640796666667,0.5922596153105,0.329240300541848,2.07563454161029E-14,2.88141252972239E-07,1.83574792268614,160.09,100.152457804072,,,,,,,,,,,,,,,,
$GNRMC,103836,A,3356.03874,S,1851.84593,E,1.27,70.14,10921,,,A,V*20,,,,,,,,,3356.03874,1851.84593,70.14,93.3978999999999,86.4098833333333,33,18,33.933979,18.8640988333333,0.592259661852613,0.329240635063288,1.97995169310529E-14,2.81421512546948E-07,1.79293645643661,161.88,100.152457804072,,,,,,,,,,,,,,,,
$GNRMC,103837,A,3356.03884,S,1851.847,E,0.9,70.14,10921,,,A,V*2B,,,,,,,,,3356.03884,1851.847,70.14,93.3980666666669,86.4116666666666,33,18,33.9339806666667,18.8641166666667,0.592259690941434,0.329240946313671,1.68833389573337E-14,2.59871806530326E-07,1.65564327940471,163.54,100.152457804072,,,,,,,,,,,,,,,,
$GNRMC,103838,A,3356.03862,S,1851.84796,E,1.29,70.14,10921,,,A,V*20,,,,,,,,,3356.03862,1851.84796,70.14,93.3976999999997,86.4132666666668,33,18,33.933977,18.8641326666667,0.592259626946028,0.329241225566351,1.44440035696978E-14,2.40366416703315E-07,1.53137444081682,165.07,100.152457804072,,,,,,,,,,,,,,,,
$GNRMC,103839,A,3356.03829,S,1851.84935,E,1.75,70.14,10921,,,A,V*20,,,,,,,,,3356.03829,1851.84935,70.14,93.3971499999999,86.4155833333333,33,18,33.9339715,18.8641558333333,0.592259530952919,0.329241629900961,3.04385170160992E-14,3.48932755791711E-07,2.22305058714899,167.29,100.152457804072,,,,,,,,,,,,,,,,
$GNRMC,103840,A,3356.03816,S,1851.85057,E,1.95,82.94,10921,,,A,V*25,,,,,,,,,3356.03816,1851.85057,82.94,93.3969333333334,86.4176166666668,33,18,33.9339693333333,18.8641761666667,0.592259493137452,0.329241984784576,2.20312828397154E-14,2.96858773424102E-07,1.89128724548495,169.19,100.152457804072,,,,,,,,,,,,,,,,
$GNRMC,103841,A,3356.03802,S,1851.85202,E,2.9,79.54,10921,,,A,V*2D,,,,,,,,,3356.03802,1851.85202,79.54,93.3966999999999,86.4200333333334,33,18,33.933967,18.8642003333333,0.592259452413103,0.329242406572478,3.1030800500945E-14,3.52311228892554E-07,2.24457483927446,171.43,100.152457804072,,,,,,,,,,,,,,,,
$GNRMC,103842,A,3356.03791,S,1851.85344,E,2.68,77.5,10921,,,A,V*25,,,,,,,,,3356.03791,1851.85344,77.5,93.3965166666667,86.4224000000002,33,18,33.9339651666667,18.864224,0.5922594204154,0.329242819633735,2.96183761398754E-14,3.44199803253144E-07,2.19289694652578,173.62,100.152457804072,,,,,,,,,,,,,,,,
$GNRMC,103843,A,3356.03789,S,1851.8546,E,1.93,77.5,10921,,,A,V*2B,,,,,,,,,3356.03789,1851.8546,77.5,93.3964833333334,86.4243333333332,33,18,33.9339648333333,18.8642433333333,0.592259414597636,0.329243157064057,1.96028197496459E-14,2.80020140344555E-07,1.78400831413516,175.41,100.152457804072,,,,,,,,,,,,,,,,
$GNRMC,103844,A,3356.03809,S,1851.8554,E,1.19,77.5,10921,,,A,V*2A,,,,,,,,,3356.03809,1851.8554,77.5,93.3968166666667,86.4256666666665,33,18,33.9339681666667,18.8642566666667,0.592259472775277,0.329243389774624,1.01657112072995E-14,2.01650303320373E-07,1.28471408245409,176.69,100.152457804072,,,,,,,,,,,,,,,,
$GNRMC,103845,A,3356.03829,S,1851.85643,E,1.24,77.5,10921,,,A,V*27,,,,,,,,,3356.03829,1851.85643,77.5,93.3971499999999,86.4273833333334,33,18,33.9339715,18.8642738333333,0.592259530952919,0.329243689389479,1.62947714327521E-14,2.55301950112036E-07,1.62652872416378,178.32,100.152457804072,,,,,,,,,,,,,,,,
$GNRMC,103846,A,3356.03829,S,1851.85727,E,1.56,77.5,10921,,,A,V*22,,,,,,,,,3356.03829,1851.85727,77.5,93.3971499999999,86.4287833333333,33,18,33.9339715,18.8642878333333,0.592259530952919,0.329243933735574,1.02748045499614E-14,2.02729421150078E-07,1.29158914214714,179.61,100.152457804072,,,,,,,,,,,,,,,,
$GNRMC,103847,A,3356.03814,S,1851.85818,E,1.55,77.5,10921,,,A,V*2D,,,,,,,,,3356.03814,1851.85818,77.5,93.3969000000002,86.4302999999999,33,18,33.933969,18.864303,0.592259487319688,0.329244198443844,1.25345898541025E-14,2.23915965077103E-07,1.42656861350622,181.04,100.152457804072,,,,,,,,,,,,,,,,
$GNRMC,103848,A,3356.0382,S,1851.85908,E,2.1,93.07,10921,,,A,V*2F,,,,,,,,,3356.0382,1851.85908,93.07,93.3969999999999,86.4317999999999,33,18,33.93397,18.864318,0.59225950477298,0.329244460243232,1.18712111586338E-14,2.17910175610354E-07,1.38830572881357,182.42,100.152457804072,,,,,,,,,,,,,,,,
$GNRMC,103849,A,3356.03826,S,1851.85998,E,1.79,93.07,10921,,,A,V*2D,,,,,,,,,3356.03826,1851.85998,93.07,93.3970999999997,86.4332999999999,33,18,33.933971,18.864333,0.592259522226273,0.329244722042619,1.18712108756407E-14,2.17910173013017E-07,1.38830571226593,183.81,100.152457804072,,,,,,,,,,,,,,,,
$GNRMC,103850,A,3356.03816,S,1851.86086,E,1.92,93.07,10921,,,A,V*26,,,,,,,,,3356.03816,1851.86086,93.07,93.3969333333334,86.4347666666667,33,18,33.9339693333333,18.8643476666667,0.592259493137452,0.329244978024243,1.14881964735746E-14,2.14366009185922E-07,1.36572584452351,185.18,100.152457804072,,,,,,,,,,,,,,,,
$GNRMC,103851,A,3356.03792,S,1851.86153,E,1.51,93.07,10921,,,A,V*22,,,,,,,,,3356.03792,1851.86153,93.07,93.3965333333337,86.4358833333332,33,18,33.9339653333333,18.8643588333333,0.592259423324282,0.329245172919343,7.75526136367974E-15,1.76127923551943E-07,1.12211100094943,186.30,100.152457804072,,,,,,,,,,,,,,,,
$GNRMC,103852,A,3356.03769,S,1851.86222,E,0.91,93.07,10921,,,A,V*2D,,,,,,,,,3356.03769,1851.86222,93.07,93.3961500000002,86.4370333333333,33,18,33.9339615,18.8643703333333,0.592259356419994,0.329245373632207,8.05191920880149E-15,1.79464973839482E-07,1.14337134833134,187.44,100.152457804072,,,,,,,,,,,,,,,,
$GNRMC,103853,A,3356.03759,S,1851.86258,E,0.31,93.07,10921,,,A,V*28,,,,,,,,,3356.03759,1851.86258,93.07,93.3959833333332,86.4376333333333,33,18,33.9339598333333,18.8643763333333,0.592259327331173,0.329245478351962,2.09874935402103E-15,9.16242185019011E-08,0.583737896075612,188.03,100.152457804072,,,,,,,,,,,,,,,,
$GNRMC,103854,A,3356.03745,S,1851.86312,E,1.12,93.07,10921,,,A,V*2D,,,,,,,,,3356.03745,1851.86312,93.07,93.3957499999997,86.4385333333333,33,18,33.9339575,18.8643853333333,0.592259286606824,0.329245635431595,4.66083968422026E-15,1.36540685280546E-07,0.869900705922358,188.90,100.152457804072,,,,,,,,,,,,,,,,
$GNRMC,103855,A,3356.03729,S,1851.86372,E,1.11,93.07,10921,,,A,V*23,,,,,,,,,3356.03729,1851.86372,93.07,93.3954833333337,86.4395333333334,33,18,33.9339548333333,18.8643953333333,0.59225924006471,0.32924580996452,5.78379118709549E-15,1.52102481072407E-07,0.969044906912306,189.87,100.152457804072,,,,,,,,,,,,,,,,
$GNRMC,103856,A,3356.03712,S,1851.86431,E,1.21,93.07,10921,,,A,V*2B,,,,,,,,,3356.03712,1851.86431,93.07,93.3951999999999,86.4405166666666,33,18,33.933952,18.8644051666667,0.592259190613715,0.329245981588563,5.68031421689862E-15,1.50735718619027E-07,0.960337263321821,190.83,100.152457804072,,,,,,,,,,,,,,,,
$GNRMC,103857,A,3356.03691,S,1851.86486,E,0.61,93.07,10921,,,A,V*29,,,,,,,,,3356.03691,1851.86486,93.07,93.3948499999997,86.4414333333332,33,18,33.9339485,18.8644143333333,0.592259129527191,0.329246141577078,5.33783689562069E-15,1.46121003221586E-07,0.930936911524725,191.76,100.152457804072,,,,,,,,,,,,,,,,
$GNRMC,103858,A,3356.03662,S,1851.86546,E,1.34,93.07,10921,,,A,V*26,,,,,,,,,3356.03662,1851.86546,93.07,93.3943666666664,86.4424333333333,33,18,33.9339436666667,18.8644243333333,0.59225904516961,0.329246316110003,7.02130069418082E-15,1.67586403913693E-07,1.06769297933414,192.83,100.152457804072,,,,,,,,,,,,,,,,
$GNRMC,103859,A,3356.03652,S,1851.86642,E,1.68,93.07,10921,,,A,V*2A,,,,,,,,,3356.03652,1851.86642,93.07,93.3942000000002,86.4440333333334,33,18,33.933942,18.8644403333333,0.59225901608079,0.329246595362683,1.36317017992394E-14,2.33509758247825E-07,1.4876906697969,194.31,100.152457804072,,,,,,,,,,,,,,,,
$GNRMC,103900,A,3356.03645,S,1851.86738,E,2.13,86.52,10921,,,A,V*26,,,,,,,,,3356.03645,1851.86738,86.52,93.3940833333334,86.4456333333332,33,18,33.9339408333333,18.8644563333333,0.592258995718615,0.329246874615364,1.35238169011276E-14,2.32583893691096E-07,1.48179198670597,195.79,100.152457804072,,,,,,,,,,,,,,,,
$GNRMC,103901,A,3356.03629,S,1851.86846,E,1.71,86.52,10921,,,A,V*2C,,,,,,,,,3356.03629,1851.86846,86.52,93.3938166666667,86.4474333333332,33,18,33.9339381666667,18.8644743333333,0.592258949176502,0.329247188774629,1.75264358363918E-14,2.64774891833738E-07,1.68688083587274,197.48,100.152457804072,,,,,,,,,,,,,,,,
$GNRMC,103902,A,3356.03619,S,1851.86939,E,1.5,86.52,10921,,,A,V*26,,,,,,,,,3356.03619,1851.86939,86.52,93.3936499999997,86.4489833333334,33,18,33.9339365,18.8644898333333,0.592258920087681,0.329247459300663,1.2806048936386E-14,2.26327629213811E-07,1.44193332572119,198.92,100.152457804072,,,,,,,,,,,,,,,,
$GNRMC,103903,A,3356.03608,S,1851.87039,E,2.22,93.5,10921,,,A,V*2F,,,,,,,,,3356.03608,1851.87039,93.5,93.3934666666664,86.4506500000001,33,18,33.9339346666667,18.8645065,0.592258888089978,0.329247750188872,1.48177733677141E-14,2.43456553559062E-07,1.55106170272478,200.47,100.152457804072,,,,,,,,,,,,,,,,
$GNRMC,103904,A,3356.03605,S,1851.87163,E,3.22,101.12,10921,,,A,V*16,,,,,,,,,3356.03605,1851.87163,101.12,93.3934166666669,86.4527166666668,33,18,33.9339341666667,18.8645271666667,0.592258879363332,0.32924811089025,2.24092784440223E-14,2.99394578735304E-07,1.90744286112262,202.38,100.152457804072,,,,,,,,,,,,,,,,
$GNRMC,103905,A,3356.03593,S,1851.87287,E,1.77,101.12,10921,,,A,V*10,,,,,,,,,3356.03593,1851.87287,101.12,93.3932166666667,86.4547833333332,33,18,33.9339321666667,18.8645478333333,0.592258844456747,0.329248471591629,2.26948579258305E-14,3.01296252388447E-07,1.91955842396679,204.30,100.152457804072,,,,,,,,,,,,,,,,
$GNRMC,103906,A,3356.03586,S,1851.87378,E,1.22,101.12,10921,,,A,V*16,,,,,,,,,3356.03586,1851.87378,101.12,93.3930999999999,86.4562999999998,33,18,33.933931,18.864563,0.592258824094572,0.329248736299899,1.21622906226259E-14,2.20565551459207E-07,1.40522312834661,205.71,100.152457804072,,,,,,,,,,,,,,,,
